4.0,2.4,,,,,,,,4,8*56
$GNGRS,085444.00,0,,,,7.5,0.7,,,,,,,,4,3*5A
$GNGRS,085444.00,0,4.4,,3.7,,,,,,,,,,4,11*68
$GNRMC,085444.00,A,3045.98269690,N,10359.27093041,E,0.106,151.4,050825,2.1,W,D,C*50
$GNGST,085444.00,5.13,8.02,1.79,47.7679,4.343,4.740,6.874*74
$GNVTG,151.382,T,153.447,M,0.10615,N,0.19660,K,A*3A
#BASEINFOA,93,GPS,FINE,2378,204901000,0,0,18,26;00000000,-1327852.282,5324085.405,3241499.041,"2197",0*4821264b
#SPPNAVA,93,GPS,FINE,2378,204902000,0,0,18,27;SOL_COMPUTED,PSRDIFF,30.76637828170,103.98784884023,564.3578,-41.7963,WGS84,4.3432,4.7403,6.8739,"2197",1.000,0.000,26,16,16,0,4,18,11,51,SOL_COMPUTED,DOPPLER_VELOCITY,0.000,0.000,0.0546,151.382164,-0.1074,0.0971,0.0762*4e02ece3
#SPPDOPA,93,GPS,FINE,2378,204902000,0,0,18,27;204902,2.8966,1.7273,2.3252,1.3624,1.0618,0.7951,0.7037,5.0,0.0,16,2,10,12,23,32,46,47,56,57,101,103,168,173,176,192,201*a275ecce
$GNGBS,085444.00,4.1,3.6,7.0,13,0.0,-7.2,32.7,4,1*66
#RECTIMEA,93,GPS,FINE,2378,204902000,0,0,18,27;VALID,4.311552658e-05,2.229857749e-08,-18.00000000000,2025,8,5,8,54,44000,VALID*7e0a47a2
$GPGSV,2,1,08,10,82,025,27,12,27,074,24,32,54,332,50,25,39,112,21,1*6E
$GPGSV,2,2,08,02,16,307,23,23,44,131,29,24,10,046,21,31,22,225,29,1*6F
$GPGSV,1,1,02,32,54,332,41,25,39,112,18,4*62
$GLGSV,2,1,05,69,34,329,47,78,51,061,29,68,46,038,20,67,17,087,22,1*77
$GLGSV,2,2,05,79,48,156,30,1*4E
$GLGSV,1,1,02,69,34,329,38,68,46,038,31,3*76
$GBGSV,2,1,08,41,64,023,40,08,72,102,24,24,13,040,24,32,27,312,27,1*70
$GBGSV,2,2,08,33,32,094,28,13,81,074,22,25,61,080,24,16,81,231,24,1*76
$GBGSV,1,1,03,41,64,023,40,32,27,312,29,33,32,094,26,3*42
$GBGSV,1,1,03,41,64,023,26,32,27,312,21,33,32,094,12,8*46
$GBGSV,1,1,02,08,72,102,20,16,81,231,22,B*05
$GAGSV,1,1,04,29,59,350,36,27,32,112,28,07,29,060,21,30,18,059,18,2*7C
$GAGSV,1,1,04,29,59,350,45,27,32,112,32,07,29,060,17,30,18,059,22,7*7A
#ADRNAVA,94,GPS,FINE,2378,204903000,0,0,18,10;SOL_COMPUTED,L1_FLOAT,30.76635685091,103.98780038742,556.0101,-41.7962,WGS84,11.2812,11.6393,20.2598,"2197",1.000,0.000,26,7,0,3,0,00,03,73,SOL_COMPUTED,L1_FLOAT,0.500,2.000,0.0282,358.756238,0.2010,20.2598,16.2092*c33cceb8
#ADRDOPA,94,GPS,FINE,2378,204903000,0,0,18,11;204903000,4.1109,3.4274,2.2699,2.9884,1.6782,0.0000,0.0000,5.0,0.0,7,32,47,46,57,201,103,101*ed160eea
#STADOPA,94,GPS,FINE,2378,204903000,0,0,18,22;204903,2.8540,1.7104,2.2847,1.3347,1.0695,0.8170,0.6902,5.0,0.0,16,2,10,12,23,32,47,56,57,81,101,103,168,173,176,192,201*d53eca45
#BESTNAVA,94,GPS,FINE,2378,204903000,0,0,18,22;SOL_COMPUTED,PSRDIFF,30.76637771083,103.98784850987,564.2757,-41.7963,WGS84,4.1729,4.1363,6.5175,"2197",1.000,0.000,26,16,16,0,80,18,11,51,SOL_COMPUTED,DOPPLER_VELOCITY,0.000,0.000,0.0535,214.004550,-0.0704,0.1251,0.0981*9fe8ef6b
#BESTNAVXYZA,94,GPS,FINE,2378,204903000,0,0,18,23;SOL_COMPUTED,PSRDIFF,-1325990.4720,5323066.4335,3243932.0656,3.9033,6.5313,4.3712,SOL_COMPUTED,DOPPLER_VELOCITY,0.0382,-0.0294,-0.0741,0.2158,0.3238,0.2647,"2197",0.000,1.000,0.000,26,16,16,0,0,18,11,51*7a5d2b39
$GNDTM,W84,,0.0,N,0.0,E,0.0,W84*71
$GNGGA,085445.00,3045.98266265,N,10359.27091059,E,2,16,1.1,564.2757,M,-41.7963,M,1.0,2197*70
$GNDTM,W84,,0.0,N,0.0,E,0.0,W84*71
$GNGNS,085445.00,3045.98266265,N,10359.27091059,E,DDDDN,16,1.1,564.2757,-41.7963,,,S*4A
$GPGNS,085445.00,,,,,,05,,,,1.0,2197,S*33
$GLGNS,085445.00,,,,,,03,,,,1.0,2197,S*29
$GAGNS,085445.00,,,,,,03,,,,1.0,2197,S*24
$GBGNS,085445.00,,,,,,05,,,,1.0,2197,S*21
$GNGLL,3045.98266265,N,10359.27091059,E,085445.00,A,D*75
$GNZDA,085445.00,05,08,2025,,*78
$GNGSA,M,3,02,10,12,23,32,,,,,,,,1.7,1.1,1.3,1*39
$GNGSA,M,3,69,78,79,,,,,,,,,,1.7,1.1,1.3,2*34
$GNGSA,M,3,07,27,29,,,,,,,,,,1.7,1.1,1.3,3*32
$GNGSA,M,3,08,13,16,32,41,,,,,,,,1.7,1.1,1.3,4*35
$GNGRS,085445.00,0,6.0,5.3,7.7,4.6,0.2,,,,,,,,1,1*77
$GNGRS,085445.00,0,,,,7.2,0.6,,,,,,,,1,4*5F
$GNGRS,085445.00,0,0.1,3.2,3.2,,,,,,,,,,2,1*75
$GNGRS,085445.00,0,0.8,,,,,,,,,,,,2,3*7E
$GNGRS,085445.00,0,5.3,2.6,0.3,,,,,,,,,,3,7*72
$GNGRS,085445.00,0,8.2,1.6,0.6,,,,,,,,,,3,2*7D
$GNGRS,085445.00,0,4.9,5.0,4.9,4.4,2.1,,,,,,,,4,1*74
$GNGRS,085445.00,0,,,,4.3,2.4,,,,,,,,4,8*54
$GNGRS,085445.00,0,,,,7.3,0.7,,,,,,,,4,3*5D
$GNGRS,085445.00,0,4.6,,3.6,,,,,,,,,,4,11*6A
$GNRMC,085445.00,A,3045.98266265,N,10359.27091059,E,0.104,214.0,050825,2.1,W,D,C*5F
$GNGST,085445.00,5.27,7.19,2.18,44.6969,4.173,4.136,6.518*7E
$GNVTG,214.005,T,216.070,M,0.10407,N,0.19273,K,A*31
#BASEINFOA,94,GPS,FINE,2378,204902000,0,0,18,26;00000000,-1327852.282,5324085.405,3241499.041,"2197",0*28d92a30
#SPPNAVA,94,GPS,FINE,2378,204903000,0,0,18,27;SOL_COMPUTED,PSRDIFF,30.76637771083,103.98784850987,564.2757,-41.7963,WGS84,4.1729,4.1363,6.5175,"2197",1.000,0.000,26,16,16,0,4,18,11,51,SOL_COMPUTED,DOPPLER_VELOCITY,0.000,0.000,0.0535,214.004550,-0.0704,0.1251,0.0981*cecbf3f7
#SPPDOPA,94,GPS,FINE,2378,204903000,0,0,18,27;204903,2.8540,1.7104,2.2847,1.3347,1.0695,0.8170,0.6902,5.0,0.0,16,2,10,12,23,32,47,56,57,81,101,103,168,173,176,192,201*72202dd3
$GNGBS,085445.00,4.3,3.6,7.0,2,0.0,8.0,34.0,1,1*71
#RECTIMEA,94,GPS,FINE,2378,204903000,0,0,18,27;VALID,4.244799870e-05,2.116744855e-08,-18.00000000000,2025,8,5,8,54,45000,VALID*52c064da
$GPGSV,2,1,08,10,82,025,27,12,27,074,24,32,54,332,50,25,39,112,22,1*6D
$GPGSV,2,2,08,02,16,307,23,23,44,131,28,24,10,046,21,31,22,225,28,1*6F
$GPGSV,1,1,03,32,54,332,40,25,39,112,17,23,44,131,23,4*5E
$GLGSV,2,1,05,69,34,329,47,78,51,061,29,68,46,038,20,67,17,087,23,1*76
$GLGSV,2,2,05,79,48,156,30,1*4E
$GLGSV,1,1,02,69,34,329,38,68,46,038,30,3*77
$GBGSV,2,1,08,41,64,023,40,08,72,102,23,24,13,040,25,32,27,312,28,1*79
$GBGSV,2,2,08,33,32,094,28,13,81,074,22,25,61,080,23,16,81,231,24,1*71
$GBGSV,1,1,03,41,64,023,40,32,27,312,29,33,32,094,26,3*42
$GBGSV,1,1,03,41,64,023,26,32,27,312,21,33,32,094,12,8*46
$GBGSV,1,1,02,08,72,102,20,16,81,231,22,B*05
$GAGSV,1,1,04,29,59,350,36,27,32,112,28,07,29,060,21,30,18,059,18,2*7C
$GAGSV,1,1,04,29,59,350,45,27,32,112,32,07,29,060,16,30,18,059,23,7*7A
#PVTSLNA,94,GPS,FINE,2378,204903000,0,0,18,29;PSRDIFF,564.2757,30.76637771083,103.98784850987,6.5175,4.1729,4.1363,1.000,PSRDIFF,564.2757,30.76637771083,103.98784850987,-41.7963,26,16,26,16,-0.0444,-0.0299,0.0704,NONE,0.0000,0.0000,0.0000,0,0,0,0,2.8540,1.7104,1.0695,2.5226,2.2847,5.0,16,2,10,12,23,32,47,56,57,81,101,103,168,173,176,192,201*89ee39a5
$KSXT,20250805085445.00,103.98784851,30.76637771,564.2757,0.00,0.00,214.00,0.193,0.00,1,0,0,16,-1559.891,2826.826,6.656,-0.108,-0.160,-0.253,,*2A
#AGRICA,94,GPS,FINE,2378,204903000,0,0,18,29;GNSS,232,25,8,5,8,54,45,2,0,5,9,3,2826.8264,-1559.8907,6.6563,11.2811,11.6393,20.2597,0.0000,0.0000,0.0000,0.088,-0.044,-0.030,-0.070,0.216,0.324,0.265,30.76637771083,103.98784850987,564.2757,-1325990.4720,5323066.4335,3243932.0656,4.1729,4.1363,6.5175,3.9033,6.5313,4.3712,30.74088296871,104.00414079555,515.0036,0.00000000000,0.00000000000,0.0000,204903000,1.000,214.004547,-41.796322,0.000000,0.000000,3,0,0,0*8ae630ae
#OBSVMA,94,GPS,FINE,2378,204903000,0,0,18,34;44,0,10,20368448.372,-107036925.179167,531,303,-506.995,2775,0,0.000,00181023,0,12,22999879.712,-120865190.714172,773,518,-975.918,2444,0,0.000,00181043,0,32,21424193.216,-112584887.256531,23,50,-407.625,5088,0,865.011,00181c63,0,32,21424207.031,-87728553.780217,63,85,-317.689,4096,0,862.011,05381c63,0,25,21691583.378,-113990040.255213,429,1499,630.289,2214,0,0.000,0018108b,0,25,21691628.110,-88823589.679723,510,1499,490.930,1799,0,0.000,0538108b,0,2,24549201.092,-129006922.262573,595,1499,117.853,2394,0,0.000,001810a3,0,23,21415216.219,-112537720.504744,457,418,-3386.023,2896,0,0.000,001810c3,0,23,21415219.542,-87691744.100282,720,1499,-2639.946,2389,0,0.000,053810c6,0,24,24480211.932,-128644380.581735,738,1499,-4707.385,2166,0,0.000,001810eb,0,31,23410336.035,-123022165.182574,725,354,2319.729,2831,0,22.010,00181d03,0,194,38560083.475,-202634606.994163,789,1499,-944.028,1558,0,0.000,001d11e7,0,194,38560117.262,-157897212.393699,255,198,-730.995,2997,0,166.010,053d1de3,8,42,21335437.966,-114050118.795185,10,51,833.297,4761,0,862.011,00191c23,8,42,21335440.731,-88705702.709596,80,95,648.018,3881,0,860.011,00b91c23,0,51,20231918.624,-107847540.239719,319,304,-2116.283,2900,0,102.010,00191c43,13,41,20435360.324,-109430426.199070,755,1499,-1168.765,2059,0,0.000,0019106b,13,41,20435374.478,-85112595.791290,337,241,-908.906,3076,0,251.010,00b91c63,12,40,22797916.822,-122039033.372206,571,1499,-2972.752,2385,0,0.000,00191083,7,52,20328249.404,-108627892.530784,323,316,1886.349,3040,0,30.010,00191ca3,0,41,22344867.112,-116355583.966756,210,86,-626.952,4075,0,863.011,001c1c23,0,41,22344871.603,-94548464.115479,240,1499,-508.963,2682,0,0.000,02a41023,0,41,22344857.389,-117423019.535834,70,85,-632.780,4089,0,858.011,011c1c23,0,8,36146955.952,-188226684.961466,486,1499,-985.061,2398,0,0.000,001c1043,0,8,36146977.763,-145548900.143510,460,1499,-760.359,2020,0,0.000,023c1047,0,24,25637645.203,-133501946.719897,814,1499,-3837.964,2527,0,0.000,001c1103,0,32,24665524.165,-128439852.787131,444,393,1162.746,2834,0,0.000,001c1123,0,32,24665533.525,-104367944.717877,432,1499,942.364,2146,0,0.000,02a41127,0,32,24665545.964,-129618281.614433,730,332,1173.275,2951,0,12.010,011c1d23,0,33,24223663.105,-126138978.388435,320,438,-2618.135,2892,0,20.010,001c1de3,0,33,24223651.169,-102498195.412015,857,1499,-2125.105,1257,0,0.000,02a411e7,0,33,24223650.607,-127296174.385211,425,518,-2642.380,2641,0,21.010,011c1de3,0,13,35834010.307,-186597094.912137,497,1499,-817.780,2237,0,0.000,001c1203,0,25,21880897.056,-113939572.128223,601,1499,-1423.842,2372,0,0.000,001c12c3,0,16,36379827.785,-189439310.424922,491,1499,-994.795,2469,0,0.000,001c1323,0,16,36379843.285,-146486553.298696,360,1499,-768.881,2289,0,0.000,023c1323,0,29,23933425.685,-125771019.014988,26,64,-1148.345,4518,0,867.001,005b1c23,0,29,23933439.725,-96370042.967740,63,118,-879.807,3615,0,866.001,02331c23,0,27,25873345.564,-135965341.541648,257,151,701.211,3288,0,17.010,005b1c43,0,27,25873362.443,-104181310.888614,159,450,537.528,2841,0,19.010,02331c43,0,7,26017752.738,-136724212.739108,534,1499,-2517.244,1665,0,0.000,005b106b,0,7,26017750.482,-104762698.962606,822,1499,-1930.294,2170,0,0.000,0233106b,0,30,26927736.847,-141506212.325312,358,1499,-1429.290,2318,0,0.000,005b10ab,0,30,26927750.094,-108426891.208098,841,1499,-1094.182,1870,0,0.000,023310ab*f7ca6613
#ADRNAVA,94,GPS,FINE,2378,204904000,0,0,18,10;SOL_COMPUTED,L1_FLOAT,30.76635719745,103.98780046805,556.1640,-41.7962,WGS84,11.2563,11.5986,20.0241,"2197",1.000,0.000,26,7,0,3,0,00,03,73,SOL_COMPUTED,L1_FLOAT,0.500,2.000,0.0392,11.360397,0.1539,20.0241,16.1627*48f38409
#ADRDOPA,94,GPS,FINE,2378,204904000,0,0,18,10;204904000,4.1115,3.4278,2.2704,2.9888,1.6783,0.0000,0.0000,5.0,0.0,7,32,47,46,57,201,103,101*03882d51
#STADOPA,94,GPS,FINE,2378,204904000,0,0,18,21;204904,2.9643,1.8468,2.3187,1.3925,1.2132,0.8790,0.8362,5.0,0.0,16,2,10,23,25,32,47,56,57,81,101,103,168,173,176,192,201*95458e0d
#BESTNAVA,94,GPS,FINE,2378,204904000,0,0,18,21;SOL_COMPUTED,PSRDIFF,30.76637716996,103.98784779288,564.2597,-41.7963,WGS84,5.1716,4.9446,6.5759,"2197",1.000,0.000,26,16,16,0,80,18,11,51,SOL_COMPUTED,DOPPLER_VELOCITY,0.000,0.000,0.0877,229.527801,-0.0148,0.1581,0.1240*f2406163
#BESTNAVXYZA,94,GPS,FINE,2378,204904000,0,0,18,22;SOL_COMPUTED,PSRDIFF,-1325990.4095,5323066.4665,3243932.0059,4.4967,7.0529,4.9469,SOL_COMPUTED,DOPPLER_VELOCITY,0.0608,0.0320,-0.0565,0.2191,0.3244,0.2710,"2197",0.000,1.000,0.000,26,16,16,0,0,18,11,51*37f5b952
$GNDTM,W84,,0.0,N,0.0,E,0.0,W84*71
$GNGGA,085446.00,3045.98263020,N,10359.27086757,E,2,16,1.2,564.2597,M,-41.7963,M,1.0,2197*77
$GNDTM,W84,,0.0,N,0.0,E,0.0,W84*71
$GNGNS,085446.00,3045.98263020,N,10359.27086757,E,DDDDN,16,1.2,564.2597,-41.7963,,,S*4D
$GPGNS,085446.00,,,,,,05,,,,1.0,2197,S*30
$GLGNS,085446.00,,,,,,03,,,,1.0,2197,S*2A
$GAGNS,085446.00,,,,,,03,,,,1.0,2197,S*27
$GBGNS,085446.00,,,,,,05,,,,1.0,2197,S*22
$GNGLL,3045.98263020,N,10359.27086757,E,085446.00,A,D*7F
$GNZDA,085446.00,05,08,2025,,*7B
$GNGSA,M,3,02,10,23,25,32,,,,,,,,1.8,1.2,1.4,1*36
$GNGSA,M,3,69,78,79,,,,,,,,,,1.8,1.2,1.4,2*3F
$GNGSA,M,3,07,27,29,,,,,,,,,,1.8,1.2,1.4,3*39
$GNGSA,M,3,08,13,16,32,41,,,,,,,,1.8,1.2,1.4,4*3E
#ADRNAVA,94,GPS,FINE,2378,204905000,0,0,18,10;SOL_COMPUTED,L1_FLOAT,30.76635762165,103.98780061767,556.3731,-41.7962,WGS84,11.2314,11.5595,19.7998,"2197",1.000,0.000,26,7,0,3,0,00,03,73,SOL_COMPUTED,L1_FLOAT,0.500,2.000,0.0492,16.940115,0.2091,19.7998,16.1172*aa8de745
#ADRDOPA,94,GPS,FINE,2378,204905000,0,0,18,10;204905000,4.1121,3.4282,2.2710,2.9892,1.6785,0.0000,0.0000,5.0,0.0,7,32,47,46,57,201,103,101*d01f11f6
#STADOPA,94,GPS,FINE,2378,204905000,0,0,18,21;204905,2.8544,1.7105,2.2851,1.3349,1.0695,0.8170,0.6902,5.0,0.0,16,2,10,12,23,32,47,56,57,81,101,103,168,173,176,192,201*4410e6e7
#BESTNAVA,94,GPS,FINE,2378,204905000,0,0,18,22;SOL_COMPUTED,PSRDIFF,30.76637648885,103.98784689121,564.3173,-41.7963,WGS84,4.5107,4.2742,6.4348,"2197",1.000,0.000,26,16,16,0,80,18,11,51,SOL_COMPUTED,DOPPLER_VELOCITY,0.000,0.000,0.1109,225.897352,0.0485,0.1227,0.0962*6cbc51ec
#BESTNAVXYZA,94,GPS,FINE,2378,204905000,0,0,18,22;SOL_COMPUTED,PSRDIFF,-1325990.3470,5323066.5729,3243931.9705,3.9422,6.7704,4.3178,SOL_COMPUTED,DOPPLER_VELOCITY,0.0577,0.0980,-0.0415,0.2145,0.3208,0.2693,"2197",0.000,1.000,0.000,26,16,16,0,0,18,11,51*8500d1c9
$GNDTM,W84,,0.0,N,0.0,E,0.0,W84*71
$GNGGA,085447.00,3045.98258933,N,10359.27081347,E,2,16,1.1,564.3173,M,-41.7963,M,1.0,2197*7B
$GNDTM,W84,,0.0,N,0.0,E,0.0,W84*71
$GNGNS,085447.00,3045.98258933,N,10359.27081347,E,DDDDN,16,1.1,564.3173,-41.7963,,,S*41
$GPGNS,085447.00,,,,,,05,,,,1.0,2197,S*31
$GLGNS,085447.00,,,,,,03,,,,1.0,2197,S*2B
$GAGNS,085447.00,,,,,,03,,,,1.0,2197,S*26
$GBGNS,085447.00,,,,,,05,,,,1.0,2197,S*23
$GNGLL,3045.98258933,N,10359.27081347,E,085447.00,A,D*7F
$GNZDA,085447.00,05,08,2025,,*7A
$GNGSA,M,3,02,10,12,23,32,,,,,,,,1.7,1.1,1.3,1*39
$GNGSA,M,3,69,78,79,,,,,,,,,,1.7,1.1,1.3,2*34
$GNGSA,M,3,07,27,29,,,,,,,,,,1.7,1.1,1.3,3*32
$GNGSA,M,3,08,13,16,32,41,,,,,,,,1.7,1.1,1.3,4*35
$GNGRS,085447.00,0,6.3,5.7,7.9,5.3,0.2,,,,,,,,1,1*78
$GNGRS,085447.00,0,,,,5.8,0.6,,,,,,,,1,4*55
$GNGRS,085447.00,0,0.1,4.3,2.9,,,,,,,,,,2,1*7B
$GNGRS,085447.00,0,0.8,,,,,,,,,,,,2,3*7C
$GNGRS,085447.00,0,5.9,2.4,0.3,,,,,,,,,,3,7*78
$GNGRS,085447.00,0,8.2,1.5,0.6,,,,,,,,,,3,2*7C
$GNGRS,085447.00,0,4.1,5.2,4.7,4.3,2.3,,,,,,,,4,1*77
$GNGRS,085447.00,0,,,,6.1,2.1,,,,,,,,4,8*53
$GNGRS,085447.00,0,,,,6.6,0.8,,,,,,,,4,3*54
$GNGRS,085447.00,0,5.0,,3.5,,,,,,,,,,4,11*6C
$GNRMC,085447.00,A,3045.98258933,N,10359.27081347,E,0.216,225.9,050825,2.1,W,D,C*5E
$GNGST,085447.00,4.50,7.58,2.36,43.1278,4.511,4.274,6.435*74
$GNVTG,225.897,T,227.963,M,0.21564,N,0.39937,K,A*36
#BASEINFOA,94,GPS,FINE,2378,204904000,0,0,18,25;00000000,-1327852.282,5324085.405,3241499.041,"2197",0*9dea1d82
#SPPNAVA,94,GPS,FINE,2378,204905000,0,0,18,26;SOL_COMPUTED,PSRDIFF,30.76637648885,103.98784689121,564.3173,-41.7963,WGS84,4.5107,4.2742,6.4348,"2197",1.000,0.000,26,16,16,0,4,18,11,51,SOL_COMPUTED,DOPPLER_VELOCITY,0.000,0.000,0.1109,225.897352,0.0485,0.1227,0.0962*ab1e751c
#SPPDOPA,94,GPS,FINE,2378,204905000,0,0,18,26;204905,2.8544,1.7105,2.2851,1.3349,1.0695,0.8170,0.6902,5.0,0.0,16,2,10,12,23,32,47,56,57,81,101,103,168,173,176,192,201*12d877cc
$GNGBS,085447.00,3.7,3.1,6.0,2,0.0,6.2,29.1,1,1*77
#RECTIMEA,94,GPS,FINE,2378,204905000,0,0,18,26;VALID,4.112130085e-05,2.269741263e-08,-18.00000000000,2025,8,5,8,54,47000,VALID*bd7957f5
$GPGSV,2,1,08,10,82,026,29,12,27,074,25,32,54,332,50,25,39,112,23,1*60
$GPGSV,2,2,08,02,16,307,22,23,44,131,28,24,10,046,22,31,22,225,27,1*62
$GPGSV,1,1,03,32,54,332,40,25,39,112,18,23,44,131,25,4*57
$GLGSV,2,1,05,69,34,329,47,78,51,061,28,68,46,038,21,67,17,087,24,1*71
$GLGSV,2,2,05,79,49,156,30,1*4F
$GLGSV,1,1,02,69,34,329,38,68,46,038,30,3*77
$GBGSV,2,1,08,41,64,023,40,08,72,102,25,24,13,040,25,32,27,312,28,1*7F
$GBGSV,2,2,08,33,32,094,29,13,81,074,22,25,61,080,23,16,81,231,24,1*70
$GBGSV,1,1,03,41,64,023,41,32,27,312,29,33,32,094,25,3*40
$GBGSV,1,1,03,41,64,023,27,32,27,312,21,33,32,094,10,8*45
$GBGSV,1,1,02,08,72,102,20,16,81,231,22,B*05
$GAGSV,1,1,04,29,59,350,36,27,32,112,28,07,29,060,21,30,18,059,18,2*7C
$GAGSV,1,1,04,29,59,350,45,27,32,112,33,07,29,060,15,30,18,059,23,7*78
#PVTSLNA,94,GPS,FINE,2378,204905000,0,0,18,28;PSRDIFF,564.3173,30.76637648885,103.98784689121,6.4348,4.5107,4.2742,1.000,PSRDIFF,564.3173,30.76637648885,103.98784689121,-41.7963,26,16,26,16,-0.0772,-0.0797,-0.0485,NONE,0.0000,0.0000,0.0000,0,0,0,0,2.8544,1.7105,1.0695,2.5230,2.2851,5.0,16,2,10,12,23,32,47,56,57,81,101,103,168,173,176,192,201*7a981270
$KSXT,20250805085447.00,103.98784689,30.76637649,564.3173,0.00,0.00,225.90,0.399,0.00,1,0,0,16,-1560.046,2826.691,6.698,-0.287,-0.278,0.175,,*07
#AGRICA,94,GPS,FINE,2378,204905000,0,0,18,28;GNSS,232,25,8,5,8,54,47,2,0,5,9,3,2826.6909,-1560.0458,6.6979,11.2314,11.5594,19.7997,0.0000,0.0000,0.0000,0.121,-0.077,-0.080,0.049,0.215,0.321,0.269,30.76637648885,103.98784689121,564.3173,-1325990.3470,5323066.5729,3243931.9705,4.5107,4.2742,6.4348,3.9422,6.7704,4.3178,30.74088296871,104.00414079555,515.0036,0.00000000000,0.00000000000,0.0000,204905000,1.000,225.897354,-41.796345,0.000000,0.000000,3,0,0,0*e0716e58
#OBSVMA,94,GPS,FINE,2378,204905000,0,0,18,33;44,0,10,20368641.877,-107037938.762972,566,225,-507.291,2920,0,1.010,00181c23,0,12,23000247.885,-120867118.307715,785,1499,-977.533,2518,0,0.000,00181043,0,32,21424348.216,-112585701.239885,22,50,-407.463,5089,0,867.011,00181c63,0,32,21424362.229,-87729188.037482,60,85,-317.477,4093,0,864.011,05381c63,0,25,21691344.493,-113988783.570486,417,1499,628.708,2369,0,0.000,0018108b,0,25,21691381.300,-88822579.587477,514,1499,490.533,1831,0,0.000,0538108b,0,2,24549155.778,-129006684.049010,629,1499,116.372,2290,0,0.000,001810a3,0,23,21416504.767,-112544491.008853,529,429,-3385.944,2849,0,0.000,001810c3,0,23,21416513.664,-87697043.084231,577,1499,-2638.236,2587,0,0.000,053810c7,0,24,24482003.101,-128653793.751947,775,1499,-4707.424,2235,0,0.000,001810eb,0,31,23409453.346,-123017525.792163,697,322,2319.522,2786,0,24.010,00181d03,0,194,38560439.511,-202636477.737435,767,1499,-945.022,1556,0,0.000,001d11e7,0,194,38560471.374,-157898672.412578,196,268,-730.548,3007,0,168.010,053d1de3,8,42,21335126.254,-114048450.802328,12,50,833.554,4798,0,864.011,00191c23,8,42,21335128.201,-88704405.375729,82,95,648.325,3893,0,862.011,00b91c23,0,51,20232710.584,-107851772.880071,429,316,-2117.507,2825,0,104.010,00191c43,13,41,20435793.804,-109432746.797029,786,1499,-1169.620,2185,0,0.000,0019106b,13,41,20435811.140,-85114413.144209,247,260,-908.799,3064,0,253.010,00b91c63,12,40,22799028.685,-122044985.349355,608,1499,-2971.964,2439,0,0.000,00191083,7,52,20327543.073,-108624120.291959,286,225,1884.678,3064,0,32.010,00191ca3,0,41,22345107.920,-116356837.042350,226,85,-627.036,4081,0,865.011,001c1c23,0,41,22345112.242,-94549482.457687,213,522,-510.125,2709,0,0.000,02a41023,0,41,22345098.653,-117424284.094334,76,84,-632.757,4103,0,860.011,011c1c23,0,8,36147334.443,-188228656.360971,412,1499,-985.044,2505,0,0.000,001c1043,0,8,36147359.217,-145550435.556932,504,1499,-761.158,2008,0,0.000,023c1047,0,24,25639117.681,-133509613.011329,812,1499,-3837.964,2541,0,0.000,001c1103,0,32,24665077.490,-128437525.648936,433,267,1162.489,2890,0,1.010,001c1d23,0,32,24665086.436,-104366052.997482,605,1499,943.191,2109,0,0.000,02a41127,0,32,24665098.770,-129615933.019650,663,272,1174.124,2984,0,14.010,011c1d23,0,33,24224667.882,-126144214.205452,391,283,-2618.308,2911,0,22.010,001c1de3,0,33,24224660.113,-102502464.581660,629,1499,-2120.020,1055,0,0.000,02a411e7,0,33,24224656.427,-127301458.240809,350,628,-2642.212,2555,0,23.010,011c1de3,0,13,35834322.997,-186598722.643823,522,1499,-817.344,2245,0,0.000,001c1203,0,25,21881445.156,-113942427.170997,696,1499,-1423.842,2380,0,0.000,001c12c3,0,16,36380209.692,-189441298.725445,470,1499,-994.202,2428,0,0.000,001c1323,0,16,36380224.289,-146488087.360568,347,1499,-768.640,2284,0,0.000,023c1327,0,29,23933862.444,-125773314.378403,27,63,-1148.054,4524,0,869.001,005b1c23,0,29,23933876.722,-96371801.752150,57,118,-879.846,3613,0,868.001,02331c23,0,27,25873078.829,-135963937.722419,244,149,701.580,3306,0,19.010,005b1c43,0,27,25873095.135,-104180235.293870,148,367,537.484,2866,0,21.010,02331c43,0,7,26018705.766,-136729220.888138,592,1499,-2516.568,1573,0,0.000,005b106b,0,7,26018708.624,-104766557.022431,824,1499,-1929.517,2154,0,0.000,0233106b,0,30,26928275.890,-141509044.365642,275,1499,-1430.552,2361,0,0.000,005b10ab,0,30,26928289.902,-108429064.254764,841,1499,-1094.920,1807,0,0.000,023310ab*7d19aa15
#BDSUTCA,94,GPS,FINE,2378,204905000,0,0,18,34;0,0,-9.313225746154785e-10,9.769962617e-15,1085,6,4,4,0,0*1d0069dd
#OBSVBASEA,94,GPS,FINE,2378,204905000,0,0,18,706;121,12,40,22809941.511,-122103409.704773,0,0,0.000,4400,0,756.001,00011c00,12,40,22809951.268,-94969342.633950,0,0,0.000,4400,0,756.001,00a11c00,13,41,20448982.593,-109503525.546530,0,0,0.000,5200,0,756.001,00011c00,13,41,20448987.399,-85169470.788365,0,0,0.000,5000,0,756.001,00a11c00,8,42,21350111.095,-114128694.078548,0,0,0.000,4900,0,756.001,00011c00,8,42,21350118.225,-88766818.373217,0,0,0.000,4900,0,756.001,00a11c00,0,51,20245005.426,-107917636.990825,0,0,0.000,5300,0,756.001,00011c00,0,51,20245012.341,-83936097.092116,0,0,0.000,5200,0,756.001,00a11c00,7,52,20337742.010,-108679023.746934,0,0,0.000,5100,0,756.001,00011c00,7,52,20337750.337,-84528305.355608,0,0,0.000,5100,0,756.001,00a11c00,0,1,38339995.035,-199646355.517285,0,0,0.000,4100,0,756.001,00041c00,0,1,38340000.360,-162229041.671091,0,0,0.000,4100,0,756.001,02a41c00,0,1,38339999.931,-154379407.492039,0,0,0.000,4400,0,756.001,02241c00,0,2,37075806.261,-193063410.071531,0,0,0.000,4300,0,756.001,00041c00,0,2,37075808.602,-156879860.131466,0,0,0.000,4500,0,756.001,02a41c00,0,2,37075805.528,-149288866.340893,0,0,0.000,4800,0,756.001,02241c00,0,3,36523760.791,-190188728.805220,0,0,0.000,4600,0,756.001,00041c00,0,3,36523762.059,-154543924.911781,0,0,0.000,4600,0,756.001,02a41c00,0,3,36523761.077,-147065979.651316,0,0,0.000,4900,0,756.001,02241c00,0,4,39262668.951,-204450984.307646,0,0,0.000,3600,0,756.001,00041c00,0,4,39262672.525,-166133101.924638,0,0,0.000,3700,0,756.001,02a41c00,0,4,39262672.543,-158094436.294611,0,0,0.000,4000,0,756.001,02241c00,0,6,35900909.817,-186945542.891111,0,0,0.000,4600,0,756.001,00041c00,0,6,35900908.906,-151908592.528158,0,0,0.000,4800,0,756.001,02a41c00,0,6,35900909.352,-144558183.481353,0,0,0.000,5000,0,756.001,02241c00,0,8,36159034.287,-188289614.558641,0,0,0.000,4700,0,756.001,00041c00,0,8,36159031.892,-153000744.911447,0,0,0.000,4900,0,756.001,02a41c00,0,8,36159032.482,-145597489.421824,0,0,0.000,5000,0,756.001,02241c00,0,9,36925862.786,-192282682.671019,0,0,0.000,4500,0,756.001,00041c00,0,9,36925863.197,-156245537.139148,0,0,0.000,4700,0,756.001,02a41c00,0,9,36925865.449,-148685286.348677,0,0,0.000,5000,0,756.001,02241c00,0,13,35846533.040,-186662341.128705,0,0,0.000,4800,0,756.001,00041c00,0,13,35846537.757,-151678485.635715,0,0,0.000,5000,0,756.001,02a41c00,0,13,35846539.383,-144339213.698411,0,0,0.000,5000,0,756.001,02241c00,0,16,36392449.150,-189505109.368897,0,0,0.000,4800,0,756.001,00041c00,0,16,36392451.705,-153988473.660404,0,0,0.000,4700,0,756.001,02a41c00,0,16,36392453.885,-146537428.540709,0,0,0.000,5000,0,756.001,02241c00,0,23,23063908.306,-120100105.385997,0,0,0.000,4800,0,756.001,00041c00,0,23,23063907.002,-97591285.872901,0,0,0.000,5000,0,756.001,02a41c00,0,23,23063912.344,-90508118.943700,0,0,0.000,4900,0,756.001,01841c00,0,23,23063909.825,-121201936.156237,0,0,0.000,4600,0,756.001,01041c00,0,25,21893227.522,-114003959.559058,0,0,0.000,5000,0,756.001,00041c00,0,25,21893230.167,-92637625.598304,0,0,0.000,5200,0,756.001,02a41c00,0,25,21893232.275,-85913970.454885,0,0,0.000,4900,0,756.001,01841c00,0,25,21893229.077,-115049853.333159,0,0,0.000,4700,0,756.001,01041c00,0,32,24680118.494,-128515916.802901,0,0,0.000,4400,0,756.001,00041c00,0,32,24680124.659,-104429760.532848,0,0,0.000,4500,0,756.001,02a41c00,0,32,24680128.679,-96850210.855675,0,0,0.000,4200,0,756.001,01841c00,0,32,24680120.960,-129694964.851502,0,0,0.000,4200,0,756.001,01041c00,0,33,24235472.803,-126200463.361469,0,0,0.000,4600,0,756.001,00041c00,0,33,24235491.101,-102548293.447279,0,0,0.000,4700,0,756.001,02a41c00,0,33,24235506.557,-95105333.457126,0,0,0.000,4500,0,756.001,01841c00,0,33,24235474.858,-127358280.323690,0,0,0.000,4300,0,756.001,01041c00,0,38,36454509.767,-189828237.135654,0,0,0.000,4800,0,756.001,00041c00,0,38,36454512.912,-154251022.428310,0,0,0.000,5000,0,756.001,02a41c00,0,38,36454516.540,-143055408.434787,0,0,0.000,4900,0,756.001,01841c00,0,38,36454512.341,-191569780.780484,0,0,0.000,4600,0,756.001,01041c00,0,39,35962595.435,-187266747.614741,0,0,0.000,4900,0,756.001,00041c00,0,39,35962596.257,-152169592.519111,0,0,0.000,5200,0,756.001,02a41c00,0,39,35962598.759,-141125049.021340,0,0,0.000,5000,0,756.001,01841c00,0,39,35962597.812,-188984788.013373,0,0,0.000,4800,0,756.001,01041c00,0,41,22358285.356,-116425568.469897,0,0,0.000,5100,0,756.001,00041c00,0,41,22358294.880,-94605402.562918,0,0,0.000,5300,0,756.001,02a41c00,0,41,22358301.331,-87738921.012684,0,0,0.000,5100,0,756.001,01841c00,0,41,22358287.804,-117493689.491557,0,0,0.000,4900,0,756.001,01041c00,0,59,37864626.900,-197170998.413757,0,0,0.000,4400,0,684.001,00041c00,0,59,37864620.932,-160217529.882026,0,0,0.000,4700,0,684.001,02a41c00,0,60,37201064.127,-193715638.979216,0,0,0.000,4700,0,756.001,00041c00,0,60,37201054.156,-157409795.871888,0,0,0.000,4900,0,756.001,02a41c00,0,2,24564327.779,-129086410.563039,0,0,0.000,3900,0,105.001,00001c00,0,2,24564329.602,-100586819.325129,0,0,0.000,2800,0,105.001,01201c00,0,10,20381206.514,-107104042.404670,0,0,0.000,5000,0,756.001,00001c00,0,10,20381208.766,-83457739.646226,0,0,0.000,5700,0,756.001,01201c00,0,10,20381207.944,-79980338.615643,0,0,0.000,5200,0,756.001,01c01c00,0,12,23011885.737,-120928447.993123,0,0,0.000,4100,0,756.001,00001c00,0,12,23011887.113,-94230019.539128,0,0,0.000,4200,0,756.001,01201c00,0,23,21426646.908,-112597803.879583,0,0,0.000,4500,0,756.001,00001c00,0,23,21426649.892,-87738567.421938,0,0,0.000,3800,0,756.001,01201c00,0,23,21426655.181,-84082816.639092,0,0,0.000,4900,0,756.001,01c01c00,0,25,21701720.789,-114043627.950050,0,0,0.000,4300,0,756.001,00001c00,0,25,21701725.310,-88865313.351200,0,0,0.000,4600,0,756.001,01201c00,0,25,21701727.490,-85162664.971596,0,0,0.000,4800,0,756.001,01c01c00,0,28,21377008.960,-112337231.744014,0,0,0.000,4500,0,756.001,00001c00,0,28,21377011.265,-87535649.108597,0,0,0.000,4000,0,756.001,01201c00,0,28,21377016.269,-83888390.610716,0,0,0.000,4900,0,756.001,01c01c00,0,32,21438532.775,-112660412.540415,0,0,0.000,4800,0,756.001,00001c00,0,32,21438535.044,-87787429.809029,0,0,0.000,5400,0,756.001,01201c00,0,32,21438534.383,-84129637.904367,0,0,0.000,4800,0,756.001,01c01c00,0,7,26031042.129,-136794065.002950,0,0,0.000,4100,0,756.001,00431c00,0,7,26031045.882,-104816253.496539,0,0,0.000,4600,0,756.001,02231c00,0,7,26031049.080,-102151454.443493,0,0,0.000,4400,0,756.001,01831c00,0,12,26855954.514,-141128997.848329,0,0,0.000,3700,0,756.001,00431c00,0,12,26855955.675,-108137807.528169,0,0,0.000,4000,0,756.001,02231c00,0,12,26855958.945,-105388558.748020,0,0,0.000,3700,0,756.001,01831c00,0,19,25071550.896,-131752007.924354,0,0,0.000,3900,0,756.001,00431c00,0,19,25071553.916,-100952964.371677,0,0,0.000,4300,0,756.001,02231c00,0,19,25071556.918,-98386379.276721,0,0,0.000,3900,0,756.001,01831c00,0,26,25838626.864,-135782803.586954,0,0,0.000,4200,0,756.001,00431c00,0,26,25838635.995,-104041355.520600,0,0,0.000,4700,0,756.001,02231c00,0,26,25838639.801,-101396243.589786,0,0,0.000,4400,0,756.001,01831c00,0,27,25883259.466,-136017765.822784,0,0,0.000,4200,0,756.001,00431c00,0,27,25883264.988,-104221607.440391,0,0,0.000,4700,0,756.001,02231c00,0,27,25883268.222,-101571942.819521,0,0,0.000,4400,0,756.001,01831c00,0,29,23947710.468,-125846203.295027,0,0,0.000,4600,0,756.001,00431c00,0,29,23947711.093,-96427694.616736,0,0,0.000,5100,0,756.001,02231c00,0,29,23947713.952,-93976166.273409,0,0,0.000,4900,0,756.001,01831c00,0,30,26940674.339,-141574254.178653,0,0,0.000,4000,0,756.001,00431c00,0,30,26940678.681,-108479043.818632,0,0,0.000,4200,0,756.001,02231c00,0,30,26940682.041,-105721117.885135,0,0,0.000,4000,0,756.001,01831c00,0,33,24499949.924,-128748127.962365,0,0,0.000,4500,0,756.001,00431c00,0,33,24499952.176,-98651178.844882,0,0,0.000,5100,0,756.001,02231c00,0,33,24499955.267,-96143114.091277,0,0,0.000,4800,0,756.001,01831c00,0,34,38570224.709,-202688130.203181,0,0,0.000,3800,0,756.001,00001c00,0,34,38570234.144,-157938975.209829,0,0,0.000,4000,0,756.001,02201c00,0,34,38570237.521,-151358211.218020,0,0,0.000,4100,0,756.001,01c01c00,0,36,38740648.299,-203583481.930670,0,0,0.000,4400,0,756.001,00001c00,0,36,38740649.908,-158636501.686384,0,0,0.000,4800,0,756.001,02201c00,0,36,38740652.391,-152026668.251546,0,0,0.000,4900,0,756.001,01c01c00,0,39,37318942.980,-196112402.473032,0,0,0.000,3700,0,756.001,00001c00,0,39,37318946.465,-152814801.859584,0,0,0.000,4600,0,756.001,02201c00,0,39,37318949.431,-146447604.911242,0,0,0.000,4800,0,756.001,01c01c00*7f25ead4
#ADRNAVA,94,GPS,FINE,2378,204906000,0,0,18,10;SOL_COMPUTED,L1_FLOAT,30.76635768529,103.98780040580,556.5427,-41.7962,WGS84,11.2068,11.5215,19.5852,"2197",1.000,0.000,26,7,0,3,0,00,03,73,SOL_COMPUTED,L1_FLOAT,0.500,2.000,0.0215,289.180968,0.1696,19.5852,16.0729*9cf8c8a1
#ADRDOPA,94,GPS,FINE,2378,204906000,0,0,18,11;204906000,4.1127,3.4286,2.2715,2.9895,1.6787,0.0000,0.0000,5.0,0.0,7,32,47,46,57,201,103,101*5844e062
#STADOPA,94,GPS,FINE,2378,204906000,0,0,18,22;204906,2.8211,1.6935,2.2563,1.3245,1.0553,0.8082,0.6785,5.0,0.0,17,2,10,12,23,25,32,47,56,57,81,101,103,168,173,176,192,201*2e1833a7
#BESTNAVA,94,GPS,FINE,2378,204906000,0,0,18,22;SOL_COMPUTED,PSRDIFF,30.76637617614,103.98784714357,564.3500,-41.7963,WGS84,4.4999,4.6946,4.8175,"2197",1.000,0.000,26,17,17,0,80,18,11,51,SOL_COMPUTED,DOPPLER_VELOCITY,0.000,0.000,0.1051,217.362917,0.0712,0.0954,0.0749*bfdfbcfd
#BESTNAVXYZA,94,GPS,FINE,2378,204906000,0,0,18,22;SOL_COMPUTED,PSRDIFF,-1325990.3816,5323066.6115,3243931.9574,4.3128,5.0551,4.6198,SOL_COMPUTED,DOPPLER_VELOCITY,0.0368,0.1163,-0.0353,0.2198,0.3217,0.2750,"2197",0.000,1.000,0.000,26,17,17,0,0,18,11,51*48e5e7de
$GNDTM,W84,,0.0,N,0.0,E,0.0,W84*71
$GNGGA,085448.00,3045.98257057,N,10359.27082861,E,2,17,1.1,564.3500,M,-41.7963,M,1.0,2197*7D
$GNDTM,W84,,0.0,N,0.0,E,0.0,W84*71
$GNGNS,085448.00,3045.98257057,N,10359.27082861,E,DDDDN,17,1.1,564.3500,-41.7963,,,S*47
$GPGNS,085448.00,,,,,,06,,,,1.0,2197,S*3D
$GLGNS,085448.00,,,,,,03,,,,1.0,2197,S*24
$GAGNS,085448.00,,,,,,03,,,,1.0,2197,S*29
$GBGNS,085448.00,,,,,,05,,,,1.0,2197,S*2C
$GNGLL,3045.98257057,N,10359.27082861,E,085448.00,A,D*78
$GNZDA,085448.00,05,08,2025,,*75
$GNGSA,M,3,02,10,12,23,25,32,,,,,,,1.7,1.1,1.3,1*3E
$GNGSA,M,3,69,78,79,,,,,,,,,,1.7,1.1,1.3,2*34
$GNGSA,M,3,07,27,29,,,,,,,,,,1.7,1.1,1.3,3*32
$GNGSA,M,3,08,13,16,32,41,,,,,,,,1.7,1.1,1.3,4*35
$GNGRS,085448.00,0,6.0,5.2,7.9,5.6,4.1,0.2,,,,,,,1,1*5F
$GNGRS,085448.00,0,,,,5.1,6.0,0.5,,,,,,,1,4*78
$GNGRS,085448.00,0,0.1,4.2,2.5,,,,,,,,,,2,1*79
$GNGRS,085448.00,0,0.8,,,,,,,,,,,,2,3*73
$GNGRS,085448.00,0,6.5,2.4,0.3,,,,,,,,,,3,7*78
$GNGRS,085448.00,0,8.3,1.3,0.6,,,,,,,,,,3,2*74
$GNGRS,085448.00,0,3.7,5.2,4.5,4.1,2.2,,,,,,,,4,1*78
$GNGRS,085448.00,0,,,,6.6,1.9,,,,,,,,4,8*50
$GNGRS,085448.00,0,,,,6.1,0.9,,,,,,,,4,3*5D
$GNGRS,085448.00,0,4.2,,3.0,,,,,,,,,,4,11*65
$GNRMC,085448.00,A,3045.98257057,N,10359.27082861,E,0.204,217.4,050825,2.1,W,D,C*56
$GNGST,085448.00,5.60,8.17,1.73,46.3275,4.500,4.695,4.817*70
$GNVTG,217.363,T,219.428,M,0.20431,N,0.37839,K,A*39
#BASEINFOA,94,GPS,FINE,2378,204905000,0,0,18,26;00000000,-1327852.282,5324085.405,3241499.041,"2197",0*6e505587
#SPPNAVA,94,GPS,FINE,2378,204906000,0,0,18,27;SOL_COMPUTED,PSRDIFF,30.76637617614,103.98784714357,564.3500,-41.7963,WGS84,4.4999,4.6946,4.8175,"2197",1.000,0.000,26,17,17,0,4,18,11,51,SOL_COMPUTED,DOPPLER_VELOCITY,0.000,0.000,0.1051,217.362917,0.0712,0.0954,0.0749*d576daba
#SPPDOPA,94,GPS,FINE,2378,204906000,0,0,18,27;204906,2.8211,1.6935,2.2563,1.3245,1.0553,0.8082,0.6785,5.0,0.0,17,2,10,12,23,25,32,47,56,57,81,101,103,168,173,176,192,201*3cb6af0a
$GNGBS,085448.00,4.5,3.8,7.4,25,0.0,10.9,41.0,1,1*77
#RECTIMEA,94,GPS,FINE,2378,204906000,0,0,18,27;VALID,4.044714382e-05,1.731937967e-08,-18.00000000000,2025,8,5,8,54,48000,VALID*1a047c03
$GPGSV,2,1,08,10,82,026,29,12,27,074,25,32,54,332,51,25,39,112,25,1*67
$GPGSV,2,2,08,02,16,307,22,23,44,131,28,24,10,046,22,31,22,225,28,1*6D
$GPGSV,1,1,04,32,54,332,40,25,39,112,17,23,44,131,25,31,22,225,14,4*6D
$GLGSV,2,1,05,69,34,329,48,78,51,061,28,68,46,038,22,67,17,087,25,1*7C
$GLGSV,2,2,05,79,49,156,30,1*4F
$GLGSV,1,1,02,69,34,329,38,68,46,038,30,3*77
$GBGSV,2,1,08,41,64,023,40,08,72,102,25,24,13,040,25,32,27,312,28,1*7F
$GBGSV,2,2,08,33,32,094,29,13,81,074,22,25,61,080,24,16,81,231,24,1*77
$GBGSV,1,1,03,41,64,023,41,32,27,312,30,33,32,094,25,3*48
$GBGSV,1,1,03,41,64,023,27,32,27,312,20,33,32,094,11,8*45
$GBGSV,1,1,02,08,72,102,19,16,81,231,22,B*0F
$GAGSV,1,1,04,29,59,350,36,27,32,112,28,07,29,060,21,30,18,059,18,2*7C
$GAGSV,1,1,04,29,59,350,45,27,32,112,33,07,29,060,15,30,18,059,23,7*78
#PVTSLNA,94,GPS,FINE,2378,204906000,0,0,18,29;PSRDIFF,564.3500,30.76637617614,103.98784714357,4.8175,4.4999,4.6946,1.000,PSRDIFF,564.3500,30.76637617614,103.98784714357,-41.7963,26,17,26,17,-0.0835,-0.0638,-0.0712,NONE,0.0000,0.0000,0.0000,0,0,0,0,2.8211,1.6935,1.0553,2.4908,2.2563,5.0,17,2,10,12,23,25,32,47,56,57,81,101,103,168,173,176,192,201*44f21249
$KSXT,20250805085448.00,103.98784714,30.76637618,564.3500,0.00,0.00,217.36,0.378,0.00,1,0,0,17,-1560.022,2826.656,6.731,-0.230,-0.301,0.256,,*00
#AGRICA,94,GPS,FINE,2378,204906000,0,0,18,29;GNSS,232,25,8,5,8,54,48,2,0,6,8,3,2826.6562,-1560.0216,6.7306,11.2068,11.5215,19.5851,0.0000,0.0000,0.0000,0.127,-0.084,-0.064,0.071,0.220,0.322,0.275,30.76637617614,103.98784714357,564.3500,-1325990.3816,5323066.6115,3243931.9574,4.4999,4.6946,4.8175,4.3128,5.0551,4.6198,30.74088296871,104.00414079555,515.0036,0.00000000000,0.00000000000,0.0000,204906000,1.000,217.362915,-41.796345,0.000000,0.000000,3,0,0,0*db050d17
#OBSVMA,94,GPS,FINE,2378,204906000,0,0,18,34;45,0,10,20368738.841,-107038447.529936,515,275,-510.773,2965,0,2.010,00181c23,0,12,23000431.903,-120868085.659416,789,1499,-980.489,2547,0,0.000,00181043,0,32,21424425.954,-112586109.580496,22,50,-410.469,5103,0,868.011,00181c63,0,32,21424439.871,-87729506.242183,52,85,-319.975,4096,0,865.011,05381c63,0,25,21691226.493,-113988164.083929,412,1499,628.322,2500,0,0.000,0018108b,0,25,21691273.945,-88822140.074515,597,1499,490.874,1756,0,0.000,0538108b,0,2,24549133.687,-129006568.202339,602,1499,113.590,2258,0,0.000,001810a3,0,23,21417149.358,-112547879.177749,564,1499,-3389.431,2828,0,0.000,001810c3,0,23,21417159.065,-87699686.345052,507,1499,-2640.253,2544,0,0.000,053810c7,0,24,24482899.292,-128658503.960498,730,1499,-4706.876,2239,0,0.000,001810eb,0,31,23409011.858,-123015207.736002,694,295,2315.175,2833,0,25.010,00181d03,0,31,23408967.951,-95855809.699761,745,1499,1809.397,1453,0,0.000,0538110b,0,194,38560620.721,-202637429.492155,790,1499,-947.425,1472,0,0.000,001d11e7,0,194,38560650.044,-157899403.383245,242,197,-732.739,3002,0,169.010,053d1de3,8,42,21334970.564,-114047618.004473,13,50,830.654,4808,0,865.011,00191c23,8,42,21334972.443,-88703757.629822,76,96,646.135,3870,0,863.011,00b91c23,0,51,20233108.449,-107853891.828259,421,472,-2121.631,2832,0,105.010,00191c43,13,41,20436006.137,-109433883.562771,795,1499,-1169.995,2270,0,0.000,0019106b,13,41,20436028.844,-85115323.055108,247,265,-911.364,3028,0,254.010,00b91c63,12,40,22799583.776,-122047957.378836,548,1499,-2975.250,2527,0,0.000,00191083,7,52,20327190.402,-108622236.235205,254,451,1881.471,3062,0,33.010,00191ca3,0,41,22345228.413,-116357465.045233,221,86,-630.238,4075,0,866.011,001c1c23,0,41,22345232.949,-94549992.758728,194,458,-512.729,2715,0,0.000,02a41023,0,41,22345219.610,-117424917.872394,88,83,-635.970,4132,0,861.011,011c1c23,0,8,36147523.959,-188229642.919924,374,1499,-988.151,2512,0,0.000,001c1043,0,8,36147547.046,-145551192.753785,423,1499,-760.007,1966,0,0.000,023c1047,0,24,25639854.054,-133513447.931819,724,1499,-3838.294,2543,0,0.000,001c1103,0,32,24664854.714,-128436363.157548,405,407,1160.645,2859,0,2.010,001c1d23,0,32,24664862.371,-104365104.010969,661,1499,945.314,2099,0,0.000,02a41127,0,32,24664875.270,-129614759.959251,609,213,1170.911,3020,0,15.010,011c1d23,0,33,24225170.676,-126146833.639693,397,265,-2622.382,2903,0,23.010,001c1de3,0,33,24225163.045,-102504592.403084,686,1499,-2119.087,1135,0,0.000,02a411e7,0,33,24225159.278,-127304101.760103,328,606,-2646.247,2555,0,24.010,011c1de3,0,13,35834479.423,-186599536.875832,519,1499,-820.736,2200,0,0.000,001c1203,0,25,21881719.236,-113943854.267481,725,1499,-1425.982,2465,0,0.000,001c12c3,0,16,36380401.004,-189442294.752194,445,1499,-996.304,2410,0,0.000,001c1323,0,16,36380413.483,-146488848.925455,295,1499,-768.517,2274,0,0.000,023c1327,0,29,23934080.992,-125774463.333741,25,63,-1151.139,4527,0,870.001,005b1c23,0,29,23934095.346,-96372682.143058,57,117,-882.081,3624,0,869.001,02331c23,0,27,25872945.651,-135963237.501819,235,163,698.177,3315,0,20.010,005b1c43,0,27,25872961.926,-104179698.788845,133,366,534.690,2872,0,22.010,02331c43,0,7,26019183.610,-136731731.502333,654,1499,-2516.579,1558,0,0.000,005b106b,0,7,26019187.827,-104768487.120810,825,1499,-1928.813,2153,0,0.000,0233106b,0,30,26928546.688,-141510466.591034,410,1499,-1430.631,2378,0,0.000,005b10a3,0,30,26928559.732,-108430151.224014,842,1499,-1095.088,1806,0,0.000,023310ab*5bd03c59
#BDSUTCA,94,GPS,FINE,2378,204906000,0,0,18,35;0,0,-9.313225746154785e-10,9.769962617e-15,1085,6,4,4,0,0*5d209ed1
#OBSVBASEA,94,GPS,FINE,2378,204906000,0,0,18,509;121,12,40,22810296.462,-122105308.573736,0,0,0.000,4400,0,757.001,00011c00,12,40,22810306.004,-94970819.506458,0,0,0.000,4300,0,757.001,00a11c00,13,41,20449000.354,-109503620.663200,0,0,0.000,5200,0,757.001,00011c00,13,41,20449005.143,-85169544.758694,0,0,0.000,5000,0,757.001,00a11c00,8,42,21349754.823,-114126790.221294,0,0,0.000,4900,0,757.001,00011c00,8,42,21349762.024,-88765337.590709,0,0,0.000,4900,0,757.001,00a11c00,0,51,20245203.147,-107918691.126270,0,0,0.000,5300,0,757.001,00011c00,0,51,20245210.080,-83936916.968294,0,0,0.000,5200,0,757.001,00a11c00,7,52,20337189.607,-108676071.810253,0,0,0.000,5200,0,757.001,00011c00,7,52,20337197.916,-84526009.402536,0,0,0.000,5100,0,757.001,00a11c00,0,1,38340001.450,-199646388.497231,0,0,0.000,4100,0,757.001,00041c00,0,1,38340006.650,-162229068.455821,0,0,0.000,4100,0,757.001,02a41c00,0,1,38340006.292,-154379432.987479,0,0,0.000,4500,0,757.001,02241c00,0,2,37075809.317,-193063426.026474,0,0,0.000,4300,0,757.001,00041c00,0,2,37075811.675,-156879873.086713,0,0,0.000,4500,0,757.001,02a41c00,0,2,37075808.566,-149288878.673770,0,0,0.000,4800,0,757.001,02241c00,0,3,36523768.635,-190188769.705935,0,0,0.000,4600,0,757.001,00041c00,0,3,36523769.957,-154543958.146963,0,0,0.000,4600,0,757.001,02a41c00,0,3,36523768.885,-147066011.264853,0,0,0.000,4900,0,757.001,02241c00,0,4,39262681.960,-204451051.602205,0,0,0.000,3500,0,757.001,00041c00,0,4,39262685.462,-166133156.588077,0,0,0.000,3700,0,757.001,02a41c00,0,4,39262685.587,-158094488.328784,0,0,0.000,4000,0,757.001,02241c00,0,6,35900876.491,-186945369.209913,0,0,0.000,4600,0,757.001,00041c00,0,6,35900875.562,-151908451.395594,0,0,0.000,4800,0,757.001,02a41c00,0,6,35900875.955,-144558049.180033,0,0,0.000,5000,0,757.001,02241c00,0,8,36159023.154,-188289556.522427,0,0,0.000,4700,0,757.001,00041c00,0,8,36159020.778,-153000697.756995,0,0,0.000,4900,0,757.001,02a41c00,0,8,36159021.385,-145597444.544542,0,0,0.000,5000,0,757.001,02241c00,0,9,36925799.637,-192282353.165247,0,0,0.000,4500,0,757.001,00041c00,0,9,36925799.887,-156245269.393443,0,0,0.000,4700,0,757.001,02a41c00,0,9,36925802.228,-148685031.553912,0,0,0.000,5000,0,757.001,02241c00,0,13,35846489.940,-186662116.767955,0,0,0.000,4800,0,757.001,00041c00,0,13,35846494.675,-151678303.328952,0,0,0.000,5000,0,757.001,02a41c00,0,13,35846496.301,-144339040.210695,0,0,0.000,5000,0,757.001,02241c00,0,16,36392440.215,-189505062.873629,0,0,0.000,4800,0,757.001,00041c00,0,16,36392442.824,-153988435.879190,0,0,0.000,4700,0,757.001,02a41c00,0,16,36392444.950,-146537392.585370,0,0,0.000,5000,0,757.001,02241c00,0,23,23063436.850,-120097650.206125,0,0,0.000,4800,0,757.001,00041c00,0,23,23063435.527,-97589290.847593,0,0,0.000,5000,0,757.001,02a41c00,0,23,23063440.852,-90506268.718616,0,0,0.000,4900,0,757.001,01841c00,0,23,23063438.369,-121199458.448844,0,0,0.000,4600,0,757.001,01041c00,0,25,21893300.910,-114004341.794361,0,0,0.000,5000,0,757.001,00041c00,0,25,21893303.573,-92637936.195797,0,0,0.000,5300,0,757.001,02a41c00,0,25,21893305.663,-85914258.509012,0,0,0.000,4900,0,757.001,01841c00,0,25,21893302.483,-115050239.075207,0,0,0.000,4700,0,757.001,01041c00,0,32,24679694.945,-128513711.450042,0,0,0.000,4400,0,757.001,00041c00,0,32,24679701.109,-104427968.514816,0,0,0.000,4500,0,757.001,02a41c00,0,32,24679705.166,-96848548.905659,0,0,0.000,4200,0,757.001,01841c00,0,32,24679697.464,-129692739.274851,0,0,0.000,4200,0,757.001,01041c00,0,33,24235775.236,-126202038.242562,0,0,0.000,4600,0,757.001,00041c00,0,33,24235793.534,-102549573.160083,0,0,0.000,4700,0,757.001,02a41c00,0,33,24235809.026,-95106520.280975,0,0,0.000,4500,0,757.001,01841c00,0,33,24235777.309,-127359869.653234,0,0,0.000,4300,0,757.001,01041c00,0,38,36454579.403,-189828599.473075,0,0,0.000,4800,0,757.001,00041c00,0,38,36454582.512,-154251316.854783,0,0,0.000,5100,0,757.001,02a41c00,0,38,36454586.140,-143055681.487213,0,0,0.000,4900,0,757.001,01841c00,0,38,36454581.922,-191570146.439168,0,0,0.000,4600,0,757.001,01041c00,0,39,35962623.847,-187266895.300461,0,0,0.000,4900,0,757.001,00041c00,0,39,35962624.616,-152169712.528219,0,0,0.000,5200,0,757.001,02a41c00,0,39,35962627.135,-141125160.320110,0,0,0.000,5000,0,757.001,01841c00,0,39,35962626.170,-188984937.054008,0,0,0.000,4800,0,757.001,01041c00,0,41,22358205.356,-116425151.922889,0,0,0.000,5100,0,757.001,00041c00,0,41,22358214.880,-94605064.081991,0,0,0.000,5300,0,757.001,02a41c00,0,41,22358221.349,-87738607.098920,0,0,0.000,5100,0,757.001,01841c00,0,41,22358207.822,-117493269.114214,0,0,0.000,4900,0,757.001,01041c00,0,59,37864634.459,-197171037.028964,0,0,0.000,4400,0,685.001,00041c00,0,59,37864628.383,-160217561.250594,0,0,0.000,4700,0,685.001,02a41c00,0,60,37201072.061,-193715680.220140,0,0,0.000,4700,0,757.001,00041c00,0,60,37201062.090,-157409829.392969,0,0,0.000,4900,0,757.001,02a41c00,0,2,24564105.256,-129085241.713543,0,0,0.000,3900,0,106.001,00001c00,0,2,24564107.204,-100585908.533315,0,0,0.000,2800,0,106.001,01201c00,0,10,20381102.606,-107103496.485755,0,0,0.000,5000,0,757.001,00001c00,0,10,20381104.893,-83457314.250290,0,0,0.000,5700,0,757.001,01201c00,0,10,20381104.053,-79979930.942347,0,0,0.000,5200,0,757.001,01c01c00,0,12,23011872.049,-120928376.380844,0,0,0.000,4100,0,757.001,00001c00,0,12,23011873.497,-94229963.737352,0,0,0.000,4200,0,757.001,01201c00,0,23,21427090.900,-112600137.012571,0,0,0.000,4500,0,757.001,00001c00,0,23,21427093.866,-87740385.443071,0,0,0.000,3800,0,757.001,01201c00,0,23,21427099.119,-84084558.915917,0,0,0.000,4900,0,757.001,01c01c00,0,25,21701400.755,-114041947.218307,0,0,0.000,4300,0,757.001,00001c00,0,25,21701405.455,-88864003.692388,0,0,0.000,4600,0,757.001,01201c00,0,25,21701407.706,-85161409.879710,0,0,0.000,4800,0,757.001,01c01c00,0,28,21376646.523,-112335327.102118,0,0,0.000,4500,0,757.001,00001c00,0,28,21376648.828,-87534164.974342,0,0,0.000,4000,0,757.001,01201c00,0,28,21376653.831,-83886968.319770,0,0,0.000,4900,0,757.001,01c01c00,0,32,21438410.193,-112659768.079788,0,0,0.000,4800,0,757.001,00001c00,0,32,21438412.409,-87786927.629630,0,0,0.000,5400,0,757.001,01201c00,0,32,21438411.730,-84129156.649110,0,0,0.000,4800,0,757.001,01c01c00,0,7,26031320.421,-136795527.476289,0,0,0.000,4100,0,757.001,00431c00,0,7,26031324.174,-104817374.088496,0,0,0.000,4600,0,757.001,02231c00,0,7,26031327.355,-102152546.543633,0,0,0.000,4400,0,757.001,01831c00,0,12,26855644.129,-141127366.676485,0,0,0.000,3700,0,757.001,00431c00,0,12,26855645.272,-108136557.653484,0,0,0.000,4000,0,757.001,02231c00,0,12,26855648.560,-105387340.673915,0,0,0.000,3700,0,757.001,01831c00,0,19,25071323.924,-131750815.244204,0,0,0.000,3900,0,757.001,00431c00,0,19,25071326.944,-100952050.511116,0,0,0.000,4300,0,757.001,02231c00,0,19,25071329.910,-98385488.649903,0,0,0.000,4000,0,757.001,01831c00,0,26,25839172.906,-135785673.054949,0,0,0.000,4200,0,757.001,00431c00,0,26,25839182.054,-104043554.194876,0,0,0.000,4700,0,757.001,02231c00,0,26,25839185.878,-101398386.352415,0,0,0.000,4400,0,757.001,01831c00,0,27,25882926.245,-136016014.831543,0,0,0.000,4200,0,757.001,00431c00,0,27,25882931.766,-104220265.774025,0,0,0.000,4700,0,757.001,02231c00,0,27,25882934.965,-101570635.258935,0,0,0.000,4400,0,757.001,01831c00,0,29,23947728.766,-125846299.559607,0,0,0.000,4600,0,757.001,00431c00,0,29,23947729.409,-96427768.371162,0,0,0.000,5100,0,757.001,02231c00,0,29,23947732.268,-93976238.157106,0,0,0.000,4900,0,757.001,01831c00,0,30,26940745.994,-141574631.178980,0,0,0.000,4000,0,757.001,00431c00,0,30,26940750.390,-108479332.682267,0,0,0.000,4200,0,757.001,02231c00,0,30,26940753.785,-105721399.411353,0,0,0.000,4000,0,757.001,01831c00,0,33,24500139.729,-128749125.334432,0,0,0.000,4500,0,757.001,00431c00,0,33,24500141.998,-98651943.060540,0,0,0.000,5100,0,757.001,02231c00,0,33,24500145.072,-96143858.875532,0,0,0.000,4800,0,757.001,01831c00,0,34,38570203.159,-202688016.560797,0,0,0.000,3800,0,757.001,00001c00,0,34,38570212.629,-157938886.661895,0,0,0.000,4000,0,757.001,02201c00,0,34,38570215.863,-151358126.353009,0,0,0.000,4100,0,757.001,01c01c00,0,36,38740502.863,-203582717.732809,0,0,0.000,4400,0,757.001,00001c00,0,36,38740504.472,-158635906.205244,0,0,0.000,4800,0,757.001,02201c00,0,36,38740506.973,-152026097.577738,0,0,0.000,4900,0,757.001,01c01c00,0,39,37318943.356,-196112404.233701,0,0,0.000,3700,0,757.001,00001c00,0,39,37318946.858,-152814803.236107,0,0,0.000,4600,0,757.001,02201c00,0,39,37318949.753,-146447606.228219,0,0,0.000,4800,0,757.001,01c01c00*b01798f1
#ADRNAVA,94,GPS,FINE,2378,204907000,0,0,18,10;SOL_COMPUTED,L1_FLOAT,30.76636939647,103.98782188762,560.9284,-41.7962,WGS84,10.9082,10.7675,17.6521,"2197",1.000,0.000,26,6,0,3,0,00,03,73,SOL_COMPUTED,L1_FLOAT,0.500,2.000,2.4323,57.734998,4.3856,17.6521,15.3274*eb36ca4a
#ADRDOPA,94,GPS,FINE,2378,204907000,0,0,18,10;204907000,4.3615,3.7213,2.2748,2.9903,2.2151,0.0000,0.0000,5.0,0.0,6,32,47,57,201,103,101*ea083ee7
#STADOPA,94,GPS,FINE,2378,204907000,0,0,18,21;204907,2.8214,1.6936,2.2565,1.3247,1.0553,0.8082,0.6785,5.0,0.0,17,2,10,12,23,25,32,47,56,57,81,101,103,168,173,176,192,201*e8ef4519
#BESTNAVA,94,GPS,FINE,2378,204907000,0,0,18,22;SOL_COMPUTED,PSRDIFF,30.76637570817,103.98784673611,564.3756,-41.7963,WGS84,4.7141,4.3473,6.0191,"2197",1.000,0.000,26,17,17,0,80,18,11,51,SOL_COMPUTED,DOPPLER_VELOCITY,0.000,0.000,0.0710,202.111722,0.0207,0.1430,0.1122*78cb1bb7
#BESTNAVXYZA,94,GPS,FINE,2378,204907000,0,0,18,22;SOL_COMPUTED,PSRDIFF,-1325990.3554,5323066.6680,3243931.9259,4.1057,6.2891,4.5762,SOL_COMPUTED,DOPPLER_VELOCITY,0.0135,0.0564,-0.0459,0.2890,0.4611,0.3833,"2197",0.000,1.000,0.000,26,17,17,0,0,18,11,51*a924d9f4
$GNDTM,W84,,0.0,N,0.0,E,0.0,W84*71
$GNGGA,085449.00,3045.98254249,N,10359.27080417,E,2,17,1.1,564.3756,M,-41.7963,M,1.0,2197*7C
$GNDTM,W84,,0.0,N,0.0,E,0.0,W84*71
$GNGNS,085449.00,3045.98254249,N,10359.27080417,E,DDDDN,17,1.1,564.3756,-41.7963,,,S*46
$GPGNS,085449.00,,,,,,06,,,,1.0,2197,S*3C
$GLGNS,085449.00,,,,,,03,,,,1.0,2197,S*25
$GAGNS,085449.00,,,,,,03,,,,1.0,2197,S*28
$GBGNS,085449.00,,,,,,05,,,,1.0,2197,S*2D
$GNGLL,3045.98254249,N,10359.27080417,E,085449.00,A,D*78
$GNZDA,085449.00,05,08,2025,,*74
$GNGSA,M,3,02,10,12,23,25,32,,,,,,,1.7,1.1,1.3,1*3E
$GNGSA,M,3,69,78,79,,,,,,,,,,1.7,1.1,1.3,2*34
$GNGSA,M,3,07,27,29,,,,,,,,,,1.7,1.1,1.3,3*32
$GNGSA,M,3,08,13,16,32,41,,,,,,,,1.7,1.1,1.3,4*35
$GNGRS,085449.00,0,5.5,4.7,7.9,6.1,5.1,0.2,,,,,,,1,1*59
$GNGRS,085449.00,0,,5.1,,4.7,6.6,0.5,,,,,,,1,4*52
$GNGRS,085449.00,0,0.1,4.8,2.5,,,,,,,,,,2,1*72
$GNGRS,085449.00,0,0.8,,,,,,,,,,,,2,3*72
$GNGRS,085449.00,0,6.5,1.9,0.2,,,,,,,,,,3,7*76
$GNGRS,085449.00,0,8.0,1.4,0.6,,,,,,,,,,3,2*71
$GNGRS,085449.00,0,4.2,6.0,4.7,3.8,2.3,,,,,,,,4,1*77
$GNGRS,085449.00,0,,,,6.1,2.0,,,,,,,,4,8*5C
$GNGRS,085449.00,0,,,,5.9,1.1,,,,,,,,4,3*5E
$GNGRS,085449.00,0,3.6,,3.0,,,,,,,,,,4,11*67
$GNRMC,085449.00,A,3045.98254249,N,10359.27080417,E,0.138,202.1,050825,2.1,W,D,C*5B
$GNGST,085449.00,4.32,7.87,2.43,42.1939,4.714,4.347,6.019*7D
$GNVTG,202.112,T,204.177,M,0.13799,N,0.25556,K,A*3C
#BASEINFOA,94,GPS,FINE,2378,204906000,0,0,18,25;00000000,-1327852.282,5324085.405,3241499.041,"2197",0*ec91e33b
#SPPNAVA,94,GPS,FINE,2378,204907000,0,0,18,26;SOL_COMPUTED,PSRDIFF,30.76637570817,103.98784673611,564.3756,-41.7963,WGS84,4.7141,4.3473,6.0191,"2197",1.000,0.000,26,17,17,0,4,18,11,51,SOL_COMPUTED,DOPPLER_VELOCITY,0.000,0.000,0.0710,202.111722,0.0207,0.1430,0.1122*33250b62
#SPPDOPA,94,GPS,FINE,2378,204907000,0,0,18,26;204907,2.8214,1.6936,2.2565,1.3247,1.0553,0.8082,0.6785,5.0,0.0,17,2,10,12,23,25,32,47,56,57,81,101,103,168,173,176,192,201*21121d97
$GNGBS,085449.00,3.5,2.9,5.7,23,0.0,-6.6,29.7,1,1*6A
#RECTIMEA,94,GPS,FINE,2378,204907000,0,0,18,27;VALID,3.978971814e-05,2.393973012e-08,-18.00000000000,2025,8,5,8,54,49000,VALID*0c5491db
$GPGSV,2,1,08,10,82,026,29,12,27,074,26,32,54,332,51,25,39,112,25,1*64
$GPGSV,2,2,08,02,16,307,23,23,44,131,28,24,09,046,22,31,22,225,27,1*6B
$GPGSV,2,1,05,10,82,026,15,32,54,332,40,25,39,112,18,23,44,131,24,4*68
$GPGSV,2,2,05,31,22,225,15,4*57
$GLGSV,2,1,05,69,34,329,48,78,51,061,29,68,46,038,23,67,17,087,25,1*7C
$GLGSV,2,2,05,79,49,156,30,1*4F
$GLGSV,1,1,02,69,34,329,38,68,46,038,29,3*7F
$GBGSV,2,1,08,41,64,023,40,08,72,102,25,24,13,040,25,32,27,312,28,1*7F
$GBGSV,2,2,08,33,32,094,28,13,81,074,22,25,61,080,24,16,81,231,23,1*71
$GBGSV,1,1,03,41,64,023,41,32,27,312,29,33,32,094,24,3*41
$GBGSV,1,1,03,41,64,023,27,32,27,312,21,33,32,094,10,8*45
$GBGSV,1,1,02,08,72,102,19,16,81,231,22,B*0F
$GAGSV,1,1,04,29,59,350,36,27,32,112,28,07,29,060,21,30,18,059,18,2*7C
$GAGSV,1,1,04,29,59,350,45,27,32,112,33,07,29,060,15,30,18,059,24,7*7F
#PVTSLNA,94,GPS,FINE,2378,204907000,0,0,18,28;PSRDIFF,564.3756,30.76637570817,103.98784673611,6.0191,4.7141,4.3473,1.000,PSRDIFF,564.3756,30.76637570817,103.98784673611,-41.7963,26,17,26,17,-0.0658,-0.0267,-0.0207,NONE,0.0000,0.0000,0.0000,0,0,0,0,2.8214,1.6936,1.0553,2.4911,2.2565,5.0,17,2,10,12,23,25,32,47,56,57,81,101,103,168,173,176,192,201*e9a47dfa
$KSXT,20250805085449.00,103.98784674,30.76637571,564.3756,0.00,0.00,202.11,0.256,0.00,1,0,0,17,-1560.061,2826.604,6.756,-0.096,-0.237,0.075,,*0F
#AGRICA,94,GPS,FINE,2378,204907000,0,0,18,29;GNSS,232,25,8,5,8,54,49,2,0,6,8,3,2826.6045,-1560.0607,6.7562,10.9082,10.7675,17.6519,0.0000,0.0000,0.0000,0.074,-0.066,-0.027,0.021,0.289,0.461,0.383,30.76637570817,103.98784673611,564.3756,-1325990.3554,5323066.6680,3243931.9259,4.7141,4.3473,6.0191,4.1057,6.2891,4.5762,30.74088296871,104.00414079555,515.0036,0.00000000000,0.00000000000,0.0000,204907000,1.000,202.111725,-41.796345,0.000000,0.000000,3,0,0,0*d7a2782c
#OBSVMA,94,GPS,FINE,2378,204907000,0,0,18,33;46,0,10,20368837.154,-107038960.580187,465,306,-514.701,2999,0,3.010,00181c23,0,10,20368842.613,-83407004.683454,509,1499,-400.195,1596,0,0.000,0538102b,0,12,23000617.371,-120869060.496195,785,472,-985.127,2654,0,0.000,00181043,0,32,21424504.432,-112586521.756632,21,50,-413.878,5107,0,869.011,00181c63,0,32,21424517.965,-87729827.400599,50,85,-322.461,4095,0,866.011,05381c63,0,25,21691109.319,-113987547.503607,510,1499,628.395,2595,0,0.000,00181083,0,25,21691154.637,-88821652.324268,658,1499,490.499,1812,0,0.000,0538108b,0,2,24549112.911,-129006459.220147,554,1499,109.577,2321,0,0.000,001810a3,0,23,21417795.030,-112551272.562194,610,596,-3393.276,2811,0,0.000,001810c3,0,23,21417822.084,-87702400.609075,473,1499,-2643.818,2411,0,0.000,053810c3,0,24,24483798.246,-128663228.015940,710,1499,-4707.334,2205,0,0.000,001810eb,0,31,23408572.082,-123012893.480213,546,365,2312.627,2771,0,26.010,00181d03,0,31,23408517.080,-95853963.835460,653,1499,1807.771,1501,0,0.000,0538110b,0,194,38560802.765,-202638386.125466,808,1499,-947.649,1442,0,0.000,001d11e7,0,194,38560829.193,-157900137.268686,233,248,-735.209,3022,0,170.010,053d1de3,8,42,21334815.556,-114046788.995227,11,50,827.357,4832,0,866.011,00191c23,8,42,21334817.142,-88703112.864140,80,97,643.386,3854,0,864.011,00b91c23,0,51,20233506.308,-107856015.334526,484,307,-2125.476,2994,0,106.010,00191c43,13,41,20436226.348,-109435064.033834,800,1499,-1171.162,2382,0,0.000,0019106b,13,41,20436247.738,-85116236.076167,274,361,-914.756,2995,0,255.010,00b91c63,12,40,22800140.513,-122050937.414454,505,1499,-2978.698,2522,0,0.000,00191083,7,52,20326838.488,-108620356.663361,252,291,1877.816,3084,0,34.010,00191ca3,0,41,22345349.760,-116358096.924328,227,86,-633.507,4068,0,867.011,001c1c23,0,41,22345354.177,-94550506.160402,201,406,-515.093,2769,0,0.010,02a41c23,0,41,22345341.411,-117425555.534292,105,81,-639.284,4168,0,862.011,011c1c23,0,8,36147714.361,-188230634.294526,416,1499,-991.313,2550,0,0.000,001c1043,0,8,36147736.718,-145551955.559533,359,1499,-760.147,1954,0,0.000,023c1047,0,24,25640590.419,-133517281.841726,722,1499,-3841.859,2502,0,0.000,001c1103,0,32,24664632.460,-128435204.371016,375,268,1157.521,2879,0,3.010,001c1d23,0,32,24664638.996,-104364159.514295,613,1499,945.326,2137,0,0.000,02a41127,0,32,24664652.433,-129613590.513392,586,309,1168.262,2978,0,16.010,011c1d23,0,33,24225674.211,-126149456.771997,401,292,-2623.952,2851,0,24.010,001c1de3,0,33,24225666.175,-102506721.805597,636,1499,-2120.205,1067,0,0.000,02a411e7,0,33,24225663.226,-127306749.019346,321,704,-2641.078,2452,0,25.010,011c1de3,0,13,35834637.131,-186600359.214270,595,1499,-820.999,2224,0,0.000,001c1207,0,25,21881994.383,-113945286.509637,747,1499,-1429.620,2413,0,0.000,001c12c3,0,16,36380592.907,-189443294.550776,468,1499,-1000.198,2357,0,0.000,001c1323,0,16,36380606.174,-146489624.654114,303,1499,-768.875,2267,0,0.000,023c1327,0,29,23934300.280,-125775616.057862,23,64,-1154.380,4519,0,871.001,005b1c23,0,29,23934314.718,-96373565.367106,56,118,-884.422,3613,0,870.001,02331c23,0,27,25872813.074,-135962541.296402,190,160,694.293,3337,0,21.010,005b1c43,0,27,25872829.416,-104179165.288342,141,396,532.002,2818,0,23.010,02331c43,0,7,26019660.106,-136734236.268839,654,1499,-2517.087,1542,0,0.000,005b106b,0,7,26019666.931,-104770415.872413,797,1499,-1928.858,2183,0,0.000,0233106b,0,30,26928817.770,-141511892.239747,511,1499,-1430.631,2414,0,0.000,005b10a3,0,30,26928830.654,-108431241.615041,842,1499,-1095.725,1820,0,0.000,023310ab*93dd5f06
#BDSUTCA,94,GPS,FINE,2378,204907000,0,0,18,35;0,0,-9.313225746154785e-10,9.769962617e-15,1085,6,4,4,0,0*f32bcd45
