     3.02           OBSERVATION DATA    M: Mixed            RINEX VERSION / TYPE
RTKCONV 2.4.2                           20250805 081747 UTC PGM / RUN BY / DATE 
log: D:\desktop\RTKLIB_bin-master\Datas\1                   COMMENT             
format: RTCM 3, station ID: 2197                            COMMENT             
                                                            MARKER NAME         
                                                            MARKER NUMBER       
                                                            MARKER TYPE         
                                                            OBSERVER / AGENCY   
                    QXWZ VRS                                REC # / TYPE / VERS 
                    ADVNULLANTENNA                          ANT # / TYPE        
 -1327852.4653  5324085.3646  3241499.0281                  APPROX POSITION XYZ 
        0.0000        0.0000        0.0000                  ANTENNA: DELTA H/E/N
G   16 C1C L1C D1C S1C C1W L1W D1W S1W C2W L2W D2W S2W C2X  SYS / # / OBS TYPES 
       L2X D2X S2X                                          SYS / # / OBS TYPES 
S    4 C1C L1C D1C S1C                                      SYS / # / OBS TYPES 
  2025     8     5     8    16   57.0000000     GPS         TIME OF FIRST OBS   
  2025     8     5     8    17   46.0000000     GPS         TIME OF LAST OBS    
G                                                           SYS / PHASE SHIFT   
S                                                           SYS / PHASE SHIFT   
  0                                                         GLONASS SLOT / FRQ #
 C1C    0.000 C1P    0.000 C2C    0.000 C2P    0.000        GLONASS COD/PHS/BIS 
                                                            END OF HEADER       
> 2025  8  5  8 16 57.0000000  0  8                     
G10  20855412.144   109596013.562                          49.000                                                                    20855414.181    85399536.469                          55.000                                                                  
G12  23335400.413   122628509.010                          40.000                                                                    23335404.040    95554736.034                          38.000                                                                  
G18  23618042.594   124113436.299                          38.000                                                                    23618057.282    96711723.041                          25.000                                                                  
G23  20648731.609   108509856.844                          46.000                                                                    20648732.788    84553160.799                          43.000                                                                  
G24  22938953.105   120545072.525                          41.000                                                                    22938957.144    93931262.469                          42.000                                                                  
G25  22660565.932   119082345.318                          39.000                                                                    22660574.259    92791573.434                          38.000                                                                  
G28  22425242.175   117845694.926                          43.000                                                                    22425246.749    91827948.560                          36.000                                                                  
G32  21774503.464   114425945.764                          47.000                                                                    21774506.162    89163168.444                          52.000                                                                  
> 2025  8  5  8 16 58.0000000  0  8                     
G10  20855114.643   109594450.170                          49.000                                                                    20855116.662    85398318.244                          55.000                                                                  
G12  23335142.081   122627151.672                          40.000                                                                    23335145.779    95553678.375                          38.000                                                                  
G18  23618735.465   124117076.755                          38.000                                                                    23618750.082    96714559.715                          25.000                                                                  
G23  20648965.336   108511084.966                          46.000                                                                    20648966.497    84554117.777                          43.000                                                                  
G24  22939603.538   120548490.696                          41.000                                                                    22939607.630    93933925.982                          42.000                                                                  
G25  22660066.761   119079721.904                          40.000                                                                    22660075.052    92789529.222                          38.000                                                                  
G28  22424695.830   117842823.374                          43.000                                                                    22424700.297    91825710.992                          36.000                                                                  
G32  21774330.796   114425038.233                          47.000                                                                    21774333.476    89162461.277                          52.000                                                                  
> 2025  8  5  8 16 59.0000000  0  8                     
G10  20854817.159   109592887.074                          49.000                                                                    20854819.214    85397100.245                          55.000                                                                  
G12  23334883.820   122625794.756                          40.000                                                                    23334887.590    95552621.043                          38.000                                                                  
G18  23619428.319   124120717.223                          37.000                                                                    23619442.900    96717396.395                          25.000                                                                  
G23  20649199.080   108512313.517                          46.000                                                                    20649200.260    84555075.090                          43.000                                                                  
G24  22940254.042   120551909.027                          41.000                                                                    22940258.134    93936589.611                          42.000                                                                  
G25  22659567.626   119077098.695                          39.000                                                                    22659575.899    92787485.174                          38.000                                                                  
G28  22424149.484   117839952.119                          43.000                                                                    22424153.898    91823473.657                          36.000                                                                  
G32  21774158.056   114424130.758                          47.000                                                                    21774160.790    89161754.154                          52.000                                                                  
> 2025  8  5  8 17  0.0000000  0  8                     
G10  20854519.747   109591324.419                          49.000                                                                    20854521.856    85395882.591                          55.000                                                                  
G12  23334625.594   122624438.410                          40.000                                                                    23334629.508    95551564.152                          38.000                                                                  
G18  23620121.279   124124357.887                          38.000                                                                    23620135.753    96720233.224                          25.000                                                                  
G23  20649433.004   108513542.655                          46.000                                                                    20649434.147    84556032.855                          43.000                                                                  
G24  22940904.635   120555327.653                          41.000                                                                    22940908.691    93939253.473                          42.000                                                                  
G25  22659068.651   119074475.852                          40.000                                                                    22659076.781    92785441.412                          38.000                                                                  
G28  22423603.139   117837081.319                          43.000                                                                    22423607.588    91821236.675                          36.000                                                                  
G32  21773985.441   114423223.506                          47.000                                                                    21773988.157    89161047.206                          52.000                                                                  
> 2025  8  5  8 17 13.0000000  0  8                     
G10  20850659.609   109571038.891                          49.000                                                                    20850661.611    85380075.682                          55.000                                                                  
G12  23331278.351   122606846.345                          40.000                                                                    23331282.157    95537856.107                          38.000                                                                  
G18  23629129.072   124171691.573                          37.000                                                                    23629143.367    96757115.984                          24.000                                                                  
G23  20652481.530   108529562.980                          46.000                                                                    20652482.638    84568516.207                          43.000                                                                  
G24  22949364.617   120599785.750                          40.000                                                                    22949368.887    93973896.110                          42.000                                                                  
G25  22652584.304   119040401.187                          40.000                                                                    22652592.613    92758889.860                          38.000                                                                  
G28  22416506.760   117799791.188                          43.000                                                                    22416511.370    91792179.507                          36.000                                                                  
G32  21771742.754   114411437.983                          47.000                                                                    21771745.541    89151863.696                          52.000                                                                  
> 2025  8  5  8 17 14.0000000  0  8                     
G10  20850363.216   109569481.215                          49.000                                                                    20850365.199    85378861.911                          55.000                                                                  
G12  23331021.573   122605496.739                          40.000                                                                    23331025.361    95536804.470                          38.000                                                                  
G18  23629822.157   124175333.532                          37.000                                                                    23629836.399    96759953.819                          24.000                                                                  
G23  20652716.723   108530799.034                          46.000                                                                    20652717.848    84569479.366                          43.000                                                                  
G24  22950015.585   120603207.361                          40.000                                                                    22950019.981    93976562.298                          42.000                                                                  
G25  22652085.919   119037782.280                          40.000                                                                    22652094.246    92756849.167                          38.000                                                                  
G28  22415961.398   117796925.561                          43.000                                                                    22415966.044    91789946.558                          36.000                                                                  
G32  21771570.478   114410532.594                          48.000                                                                    21771573.266    89151158.203                          52.000                                                                  
> 2025  8  5  8 17 15.0000000  0  8                     
G10  20850066.805   109567923.516                          49.000                                                                    20850068.770    85377648.119                          55.000                                                                  
G12  23330764.760   122604147.236                          40.000                                                                    23330768.601    95535752.914                          38.000                                                                  
G18  23630515.190   124178975.185                          37.000                                                                    23630529.342    96762791.423                          24.000                                                                  
G23  20652951.915   108532035.191                          46.000                                                                    20652953.076    84570442.603                          43.000                                                                  
G24  22950666.732   120606628.760                          40.000                                                                    22950671.057    93979228.323                          42.000                                                                  
G25  22651587.624   119035163.293                          40.000                                                                    22651595.861    92754808.407                          38.000                                                                  
G28  22415415.964   117794059.911                          43.000                                                                    22415420.717    91787713.591                          36.000                                                                  
G32  21771398.203   114409626.953                          48.000                                                                    21771400.937    89150452.511                          52.000                                                                  
> 2025  8  5  8 17 16.0000000  0  8                     
G10  20849770.500   109566366.580                          49.000                                                                    20849772.502    85376434.920                          55.000                                                                  
G12  23330507.928   122602798.617                          40.000                                                                    23330511.984    95534702.044                          38.000                                                                  
G18  23631208.365   124182617.352                          37.000                                                                    23631222.410    96765629.432                          24.000                                                                  
G23  20653187.232   108533272.254                          46.000                                                                    20653188.483    84571406.546                          43.000                                                                  
G24  22951318.005   120610050.811                          40.000                                                                    22951322.240    93981894.854                          42.000                                                                  
G25  22651089.507   119032544.979                          40.000                                                                    22651097.601    92752768.174                          38.000                                                                  
G28  22414870.690   117791195.047                          43.000                                                                    22414875.551    91785481.234                          36.000                                                                  
G32  21771225.964   114408721.849                          48.000                                                                    21771228.698    89149747.235                          52.000                                                                  
> 2025  8  5  8 17 17.0000000  0  8                     
G10  20849474.143   109564809.218                          49.000                                                                    20849476.144    85375221.392                          55.000                                                                  
G12  23330251.418   122601449.701                          40.000                                                                    23330255.314    95533650.943                          38.000                                                                  
G18  23631901.379   124186258.826                          37.000                                                                    23631915.335    96768466.894                          24.000                                                                  
G23  20653422.549   108534509.028                          46.000                                                                    20653423.836    84572370.263                          43.000                                                                  
G24  22951969.116   120613472.281                          40.000                                                                    22951973.297    93984560.930                          42.000                                                                  
G25  22650591.211   119029926.186                          40.000                                                                    22650599.252    92750727.565                          38.000                                                                  
G28  22414325.381   117788329.769                          43.000                                                                    22414330.313    91783248.557                          36.000                                                                  
G32  21771053.635   114407816.114                          48.000                                                                    21771056.351    89149041.465                          52.000                                                                  
> 2025  8  5  8 17 18.0000000  0  8                     
G10  20849177.838   109563252.385                          49.000                                                                    20849179.893    85374008.275                          55.000                                                                  
G12  23329994.926   122600101.424                          40.000                                                                    23329998.786    95532600.347                          38.000                                                                  
G18  23632594.376   124189900.553                          37.000                                                                    23632608.313    96771304.560                          24.000                                                                  
G23  20653657.991   108535746.458                          46.000                                                                    20653659.314    84573334.492                          43.000                                                                  
G24  22952620.335   120616894.127                          40.000                                                                    22952624.445    93987227.303                          41.000                                                                  
G25  22650092.969   119027307.816                          40.000                                                                    22650100.975    92748687.288                          38.000                                                                  
G28  22413780.126   117785465.029                          43.000                                                                    22413785.165    91781016.296                          36.000                                                                  
G32  21770881.359   114406910.660                          48.000                                                                    21770884.058    89148335.919                          52.000                                                                  
> 2025  8  5  8 17 19.0000000  0  8                     
G10  20848881.731   109561696.382                          49.000                                                                    20848883.786    85372795.805                          55.000                                                                  
G12  23329738.595   122598754.119                          39.000                                                                    23329742.419    95531550.506                          38.000                                                                  
G18  23633287.444   124193542.864                          37.000                                                                    23633301.435    96774142.678                          24.000                                                                  
G23  20653893.648   108536984.875                          46.000                                                                    20653894.970    84574299.490                          43.000                                                                  
G24  22953271.536   120620316.683                          40.000                                                                    22953275.717    93989894.228                          41.000                                                                  
G25  22649594.745   119024690.235                          40.000                                                                    22649602.876    92746647.624                          38.000                                                                  
G28  22413235.192   117782601.142                          43.000                                                                    22413240.178    91778784.703                          36.000                                                                  
G32  21770709.209   114406005.832                          47.000                                                                    21770711.890    89147630.860                          52.000                                                                  
> 2025  8  5  8 17 20.0000000  0  8                     
G10  20848585.570   109560140.253                          49.000                                                                    20848587.660    85371583.236                          55.000                                                                  
G12  23329482.193   122597406.803                          40.000                                                                    23329486.070    95530500.651                          38.000                                                                  
G18  23633980.440   124197184.770                          37.000                                                                    23633994.449    96776980.479                          24.000                                                                  
G23  20654129.340   108538223.291                          46.000                                                                    20654130.627    84575264.490                          43.000                                                                  
G24  22953922.915   120623738.939                          40.000                                                                    22953926.918    93992560.919                          41.000                                                                  
G25  22649096.539   119022072.428                          40.000                                                                    22649104.723    92744607.786                          38.000                                                                  
G28  22412690.223   117779737.135                          43.000                                                                    22412695.190    91776553.016                          36.000                                                                  
G32  21770536.934   114405100.649                          48.000                                                                    21770539.650    89146925.522                          52.000                                                                  
> 2025  8  5  8 17 21.0000000  0  8                     
G10  20848289.569   109558584.731                          49.000                                                                    20848291.660    85370371.142                          55.000                                                                  
G12  23329225.933   122596060.234                          39.000                                                                    23329229.828    95529451.377                          38.000                                                                  
G18  23634673.633   124200827.019                          37.000                                                                    23634687.517    96779818.547                          24.000                                                                  
G23  20654365.104   108539462.456                          46.000                                                                    20654366.426    84576230.070                          43.000                                                                  
G24  22954574.295   120627161.668                          40.000                                                                    22954578.226    93995227.976                          41.000                                                                  
G25  22648598.494   119019455.176                          40.000                                                                    22648606.660    92742568.380                          38.000                                                                  
G28  22412145.361   117776873.753                          43.000                                                                    22412150.310    91774321.814                          36.000                                                                  
G32  21770364.784   114404195.847                          48.000                                                                    21770367.464    89146220.484                          52.000                                                                  
> 2025  8  5  8 17 22.0000000  0  8                     
G10  20847993.694   109557029.872                          49.000                                                                    20847995.785    85369159.561                          55.000                                                                  
G12  23328969.781   122594714.440                          39.000                                                                    23328973.765    95528402.706                          38.000                                                                  
G18  23635367.130   124204469.664                          37.000                                                                    23635380.657    96782656.920                          23.000                                                                  
G23  20654601.100   108540702.419                          46.000                                                                    20654602.387    84577196.275                          43.000                                                                  
G24  22955225.692   120630584.913                          40.000                                                                    22955229.623    93997895.440                          41.000                                                                  
G25  22648100.448   119016838.499                          40.000                                                                    22648108.704    92740529.418                          38.000                                                                  
G28  22411600.623   117774011.040                          43.000                                                                    22411605.537    91772091.135                          36.000                                                                  
G32  21770192.687   114403291.491                          48.000                                                                    21770195.386    89145515.791                          52.000                                                                  
> 2025  8  5  8 17 23.0000000  0  8                     
G10  20847697.783   109555474.753                          49.000                                                                    20847699.856    85367947.780                          55.000                                                                  
G12  23328713.664   122593368.512                          40.000                                                                    23328717.649    95527353.940                          38.000                                                                  
G18  23636060.376   124208111.778                          38.000                                                                    23636073.671    96785494.883                          23.000                                                                  
G23  20654836.971   108541942.250                          46.000                                                                    20654838.330    84578162.377                          43.000                                                                  
G24  22955877.197   120634007.748                          40.000                                                                    22955880.949    94000562.581                          41.000                                                                  
G25  22647602.367   119014221.508                          40.000                                                                    22647610.712    92738490.213                          38.000                                                                  
G28  22411055.868   117771148.078                          43.000                                                                    22411060.747    91769860.260                          36.000                                                                  
G32  21770020.519   114402386.642                          48.000                                                                    21770023.218    89144810.717                          52.000                                                                  
> 2025  8  5  8 17 24.0000000  0  8                     
G10  20847401.979   109553920.437                          49.000                                                                    20847404.088    85366736.624                          55.000                                                                  
G12  23328457.833   122592023.510                          39.000                                                                    23328461.728    95526305.891                          38.000                                                                  
G18  23636753.462   124211754.444                          38.000                                                                    23636766.828    96788333.273                          23.000                                                                  
G23  20655073.093   108543183.040                          46.000                                                                    20655074.433    84579129.222                          43.000                                                                  
G24  22956528.522   120637431.257                          40.000                                                                    22956532.400    94003230.249                          41.000                                                                  
G25  22647104.572   119011605.227                          40.000                                                                    22647112.827    92736451.564                          38.000                                                                  
G28  22410511.238   117768285.940                          43.000                                                                    22410516.099    91767630.032                          36.000                                                                  
G32  21769848.369   114401482.371                          48.000                                                                    21769851.139    89144106.092                          52.000                                                                  
> 2025  8  5  8 17 25.0000000  0  8                     
G10  20847106.390   109552366.872                          49.000                                                                    20847108.445    85365526.055                          55.000                                                                  
G12  23328201.931   122590679.386                          39.000                                                                    23328205.969    95525258.524                          38.000                                                                  
G18  23637446.655   124215397.588                          38.000                                                                    23637460.057    96791172.043                          23.000                                                                  
G23  20655309.428   108544424.708                          46.000                                                                    20655310.715    84580096.756                          43.000                                                                  
G24  22957180.063   120640855.374                          40.000                                                                    22957183.940    94005898.387                          41.000                                                                  
G25  22646606.776   119008989.636                          40.000                                                                    22646615.086    92734413.452                          38.000                                                                  
G28  22409966.716   117765424.571                          43.000                                                                    22409971.594    91765400.399                          36.000                                                                  
G32  21769676.273   114400578.634                          48.000                                                                    21769679.167    89143401.882                          52.000                                                                  
> 2025  8  5  8 17 26.0000000  0  8                     
G10  20846810.622   109550813.006                          49.000                                                                    20846812.748    85364315.247                          55.000                                                                  
G12  23327946.118   122589335.077                          40.000                                                                    23327950.156    95524211.013                          38.000                                                                  
G18  23638139.777   124219040.154                          38.000                                                                    23638153.178    96794010.358                          24.000                                                                  
G23  20655545.675   108545666.205                          46.000                                                                    20655546.961    84581064.152                          43.000                                                                  
G24  22957831.639   120644279.028                          40.000                                                                    22957835.409    94008566.169                          41.000                                                                  
G25  22646108.928   119006373.658                          40.000                                                                    22646117.272    92732375.039                          38.000                                                                  
G28  22409422.193   117762562.900                          43.000                                                                    22409427.035    91763170.527                          36.000                                                                  
G32  21769504.122   114399674.366                          48.000                                                                    21769507.107    89142697.260                          53.000                                                                  
> 2025  8  5  8 17 27.0000000  0  8                     
G10  20846515.032   109549259.429                          50.000                                                                    20846517.123    85363104.673                          55.000                                                                  
G12  23327690.484   122587991.196                          39.000                                                                    23327694.433    95523163.840                          38.000                                                                  
G18  23638832.988   124222682.753                          38.000                                                                    23638846.300    96796848.701                          24.000                                                                  
G23  20655781.993   108546908.137                          47.000                                                                    20655783.315    84582031.889                          43.000                                                                  
G24  22958483.179   120647702.810                          40.000                                                                    22958486.914    94011234.049                          41.000                                                                  
G25  22645611.115   119003757.899                          40.000                                                                    22645619.513    92730336.797                          38.000                                                                  
G28  22408877.742   117759701.537                          43.000                                                                    22408882.531    91760940.901                          36.000                                                                  
G32  21769332.062   114398770.163                          48.000                                                                    21769335.046    89141992.686                          53.000                                                                  
> 2025  8  5  8 17 28.0000000  0  8                     
G10  20846219.586   109547706.337                          49.000                                                                    20846221.569    85361894.469                          55.000                                                                  
G12  23327434.939   122586647.923                          39.000                                                                    23327438.852    95522117.138                          38.000                                                                  
G18  23639526.181   124226325.562                          38.000                                                                    23639539.475    96799687.206                          24.000                                                                  
G23  20656018.418   108548150.686                          47.000                                                                    20656019.758    84583000.108                          43.000                                                                  
G24  22959134.755   120651126.942                          40.000                                                                    22959138.472    94013902.203                          41.000                                                                  
G25  22645113.587   119001142.557                          40.000                                                                    22645121.825    92728298.878                          38.000                                                                  
G28  22408333.433   117756840.664                          43.000                                                                    22408338.097    91758711.656                          36.000                                                                  
G32  21769160.001   114397866.224                          48.000                                                                    21769163.038    89141288.320                          53.000                                                                  
> 2025  8  5  8 17 29.0000000  0  8                     
G10  20845924.283   109546154.578                          49.000                                                                    20845926.284    85360685.308                          55.000                                                                  
G12  23327179.430   122585306.112                          39.000                                                                    23327183.522    95521071.575                          38.000                                                                  
G18  23640219.767   124229969.443                          38.000                                                                    23640232.883    96802526.541                          24.000                                                                  
G23  20656255.111   108549394.716                          47.000                                                                    20656256.487    84583969.480                          43.000                                                                  
G24  22959786.438   120654552.262                          40.000                                                                    22959790.262    94016571.282                          41.000                                                                  
G25  22644616.114   118998528.480                          40.000                                                                    22644624.369    92726261.943                          38.000                                                                  
G28  22407789.429   117753981.155                          42.000                                                                    22407793.950    91756483.472                          36.000                                                                  
G32  21768988.190   114396963.394                          48.000                                                                    21768991.228    89140584.816                          53.000                                                                  
> 2025  8  5  8 17 30.0000000  0  8                     
G10  20845628.890   109544602.237                          50.000                                                                    20845630.891    85359475.687                          55.000                                                                  
G12  23326923.956   122583963.830                          39.000                                                                    23326928.102    95520025.644                          38.000                                                                  
G18  23640913.013   124233612.467                          38.000                                                                    23640926.147    96805365.213                          24.000                                                                  
G23  20656491.875   108550638.294                          46.000                                                                    20656493.144    84584938.500                          43.000                                                                  
G24  22960438.193   120657976.851                          40.000                                                                    22960441.910    94019239.788                          41.000                                                                  
G25  22644118.694   118995913.743                          40.000                                                                    22644126.771    92724224.493                          38.000                                                                  
G28  22407245.192   117751121.066                          42.000                                                                    22407249.695    91754254.835                          36.000                                                                  
G32  21768816.290   114396059.757                          48.000                                                                    21768819.292    89139880.683                          53.000                                                                  
> 2025  8  5  8 17 31.0000000  0  8                     
G10  20845333.568   109543050.286                          50.000                                                                    20845335.570    85358266.375                          55.000                                                                  
G12  23326668.626   122582622.071                          39.000                                                                    23326672.789    95518980.122                          38.000                                                                  
G18  23641606.188   124237255.620                          39.000                                                                    23641619.429    96808203.985                          24.000                                                                  
G23  20656728.533   108551882.388                          47.000                                                                    20656729.891    84585907.924                          43.000                                                                  
G24  22961089.948   120661401.669                          40.000                                                                    22961093.611    94021908.475                          41.000                                                                  
G25  22643621.202   118993299.305                          40.000                                                                    22643629.243    92722187.280                          38.000                                                                  
G28  22406700.884   117748261.376                          42.000                                                                    22406705.512    91752026.512                          36.000                                                                  
G32  21768644.354   114395156.275                          48.000                                                                    21768647.356    89139176.674                          53.000                                                                  
> 2025  8  5  8 17 32.0000000  0  8                     
G10  20845038.390   109541499.325                          50.000                                                                    20845040.427    85357057.833                          55.000                                                                  
G12  23326413.420   122581281.419                          39.000                                                                    23326417.673    95517935.460                          38.000                                                                  
G18  23642299.685   124240899.486                          39.000                                                                    23642312.873    96811043.318                          24.000                                                                  
G23  20656965.512   108553127.613                          46.000                                                                    20656966.852    84586878.226                          43.000                                                                  
G24  22961741.703   120664827.341                          40.000                                                                    22961745.455    94024577.828                          41.000                                                                  
G25  22643123.675   118990685.791                          40.000                                                                    22643131.895    92720150.789                          38.000                                                                  
G28  22406156.826   117745402.689                          42.000                                                                    22406161.525    91749798.973                          36.000                                                                  
G32  21768472.562   114394253.566                          48.000                                                                    21768475.599    89138473.266                          53.000                                                                  
> 2025  8  5  8 17 33.0000000  0  8                     
G10  20844743.122   109539947.899                          49.000                                                                    20844745.195    85355848.931                          55.000                                                                  
G12  23326158.483   122579940.443                          39.000                                                                    23326162.521    95516890.547                          38.000                                                                  
G18  23642993.003   124244542.624                          39.000                                                                    23643006.155    96813882.083                          24.000                                                                  
G23  20657202.419   108554372.511                          47.000                                                                    20657203.759    84587848.280                          43.000                                                                  
G24  22962393.332   120668252.400                          40.000                                                                    22962397.210    94027246.705                          41.000                                                                  
G25  22642626.237   118988071.752                          40.000                                                                    22642634.439    92718113.890                          38.000                                                                  
G28  22405612.803   117742543.553                          42.000                                                                    22405617.449    91747571.082                          36.000                                                                  
G32  21768300.644   114393350.163                          48.000                                                                    21768303.681    89137769.318                          53.000                                                                  
> 2025  8  5  8 17 34.0000000  0  8                     
G10  20844448.069   109538397.442                          49.000                                                                    20844450.160    85354640.782                          55.000                                                                  
G12  23325903.349   122578600.551                          40.000                                                                    23325907.530    95515846.479                          38.000                                                                  
G18  23643686.500   124248186.458                          38.000                                                                    23643699.562    96816721.386                          24.000                                                                  
G23  20657439.487   108555618.516                          47.000                                                                    20657440.863    84588819.190                          43.000                                                                  
G24  22963045.266   120671678.289                          40.000                                                                    22963049.125    94029916.227                          41.000                                                                  
G25  22642128.871   118985458.617                          40.000                                                                    22642137.144    92716077.687                          38.000                                                                  
G28  22405068.924   117739685.397                          42.000                                                                    22405073.570    91745343.954                          36.000                                                                  
G32  21768128.922   114392447.509                          48.000                                                                    21768131.924    89137065.954                          53.000                                                                  
> 2025  8  5  8 17 35.0000000  0  8                     
G10  20844152.891   109536846.625                          49.000                                                                    20844155.053    85353432.353                          55.000                                                                  
G12  23325648.376   122577260.426                          40.000                                                                    23325652.522    95514802.228                          38.000                                                                  
G18  23644379.622   124251829.657                          38.000                                                                    23644392.898    96819560.193                          24.000                                                                  
G23  20657676.556   108556864.290                          47.000                                                                    20657677.914    84589789.923                          43.000                                                                  
G24  22963697.181   120675103.636                          40.000                                                                    22963700.934    94032585.326                          41.000                                                                  
G25  22641631.469   118982845.030                          40.000                                                                    22641639.760    92714041.135                          38.000                                                                  
G28  22404524.937   117736826.898                          42.000                                                                    22404529.601    91743116.555                          36.000                                                                  
G32  21767956.987   114391544.257                          48.000                                                                    21767960.042    89136362.121                          53.000                                                                  
> 2025  8  5  8 17 36.0000000  0  8                     
G10  20843857.784   109535295.860                          50.000                                                                    20843859.964    85352223.962                          55.000                                                                  
