     3.02           OBSERVATION DATA    M                   RINEX VERSION / TYPE
G = GPS,  R = GLONASS,  E = GALILEO,  C = BDS,  M = MIXED   COMMENT             
UnicoreConvert      Unicore             20250714 021217 UTC PGM / RUN BY / DATE 
UnicoreRoof 001                                             MARKER NAME         
GEODETIC                                                    MARKER TYPE         
Unicore-001         Unicore HPL EVT                         OBSERVER / AGENCY   
Unicore#001         GEODETIC            Unicore UB4B0       REC # / TYPE / VERS 
Ant001              ROVER                                   ANT # / TYPE        
 -1326002.8464  5323044.2529  3243889.2835                  APPROX POSITION XYZ 
        0.0000        0.0000        0.0000                  ANTENNA: DELTA H/E/N
G    8 C1C L1C D1C S1C C2W L2W D2W S2W                      SYS / # / OBS TYPES 
R    8 C1C L1C D1C S1C C2C L2C D2C S2C                      SYS / # / OBS TYPES 
C   16 C1I L1I D1I S1I C7I L7I D7I S7I C6I L6I D6I S6I C1Q  SYS / # / OBS TYPES 
       L1Q D1Q S1Q                                          SYS / # / OBS TYPES 
E    8 C1C L1C D1C S1C C7Q L7Q D7Q S7Q                      SYS / # / OBS TYPES 
J    8 C1C L1C D1C S1C C2L L2L D2L S2L                      SYS / # / OBS TYPES 
  2025     5    29     9     1    48.0000000     GPS         TIME OF FIRST OBS   
  2025     5    29     9    12   9.0000000     GPS         TIME OF LAST OBS    
     0                                                      RCV CLOCK OFFS APPL 
                                                            END OF HEADER       
> 2025 05 29  9  1 48.0000000  0 30
E43    20946136.888          -111772614.24374                 100.000                 141.000                1065.901              3381.00000                                 229.010          
G02    37014837.930          -156621891.95243                 198.000                1499.000                -750.602              3088.00000                                          
G05    21769584.089          -87657094.09652                  47.000                 106.000                -837.724              3734.00000                                 856.011          
G08    36886111.312          -156077217.66139                  33.000                 136.000                -903.024              3432.00000                                 866.011          
G09    26301166.693          -138213563.19180                 767.000                1499.000               -3400.797              2577.00000                                          
G11    22397124.747          -94769584.66458                  27.000                 102.000                 385.168              3772.00000                                 860.011          
G12    22004216.737          -93107041.88859                 443.000                1499.000               -2193.524              1545.00000                                          
G13    36924185.633          -156238313.72765                  39.000                 130.000                -861.388              3500.00000                                 866.011          
G15    19709966.421          -80709018.99428                  25.000                  65.000                -414.847              4485.00000                                 865.011          
G16    39360849.971          -158489840.93646                 184.000                 202.000                 555.309              3113.00000                                  65.010          
G18    22223109.578          -90999857.08549                  48.000                  78.000                1373.287              4230.00000                                 141.010          
G20    23579578.327          -123911520.11381                 589.000                1499.000               -3045.689              2425.00000                                          
G21    22296062.291          -117166613.43258                  29.000                  59.000               -2281.148              4602.00000                                 848.011          
G22    25301869.923          -131753477.56331                 747.000                 325.000               -3638.967              2888.00000                                   1.010          
G23    22974992.026          -94078697.68519                 282.000                 164.000                 655.047              3154.00000                                 129.010          
G29    21213912.657          -86867440.19589                  69.000                  81.000               -1992.321              4178.00000                                 865.011          
G34    23693773.405          -95405013.48941                  25.000                  70.000                 107.604              4396.00000                                 867.011          
G36    24538360.813          -98805810.47858                 283.000                1499.000               -1594.163              1860.00000                                          
G38    36640104.481          -192545034.58645                  49.000                  70.000               -1088.761              4387.00000                                 866.011          
G39    38648863.792          -203101153.65393                 232.000                 154.000                 832.763              3258.00000                                  98.010          
G40    38946615.248          -202805245.40223                 431.000                1499.000               -2730.000              2227.00000                                          
G41    23218156.989          -124332212.55222                 745.000                 319.000               -4714.333              2920.00000                                  11.010          
G42    22802107.739          -119825885.29856                  10.000                  50.000                 132.052              4903.00000                                 867.011          
G43    23938836.781          -125799565.47104                 322.000                 142.000                1453.375              3372.00000                                 126.010          
G44    23405455.530          -121878348.86673                 707.000                1499.000               -3845.368              2847.00000                                          
G50    21914596.376          -115162006.71906                  35.000                  64.000               -1081.804              4502.00000                                 849.011          
G56    21199891.884          -88203992.96062                 286.000                 311.000               -3305.096              3072.00000                                  13.010          
G57    19157040.538          -79676571.54783                  22.000                  68.000                -315.491              4434.00000                                 864.011          
G58    21681250.000          -90238361.53836                 217.000                 263.000                2098.009              3250.00000                                 139.010          
G60    37101573.922          -156988903.68572                  16.000                  87.000                -771.841              4058.00000                                 867.011          
> 2025 05 29  9  1 49.0000000  0 30
E43    20945938.011          -111771548.02183                 127.000                 135.000                1065.783              3445.00000                                 230.010          
G02    37015014.987          -156622641.36590                 195.000                1499.000                -749.674              2887.00000                                          
G05    21769792.057          -87657931.45256                  40.000                 107.000                -837.735              3728.00000                                 857.011          
G08    36886324.625          -156078120.10107                  39.000                 137.000                -902.365              3428.00000                                 867.011          
G09    26301813.780          -138216964.02147                 773.000                1499.000               -3400.043              2504.00000                                          
G11    22397033.577          -94769199.00264                  29.000                 102.000                 385.113              3778.00000                                 861.011          
G12    22004734.672          -93109232.64834                 460.000                1499.000               -2194.032              1517.00000                                          
G13    36924389.085          -156239174.38698                  37.000                 132.000                -860.801              3477.00000                                 867.011          
G15    19710067.662          -80709433.36019                  26.000                  65.000                -414.724              4495.00000                                 866.011          
G16    39360712.000          -158489285.78176                 191.000                 201.000                 555.019              3123.00000                                  66.010          
G18    22222773.943          -90998483.28697                  44.000                  78.000                1373.600              4232.00000                                 142.010          
G20    23580156.866          -123914559.87525                 639.000                 551.000               -3043.862              2402.00000                                          
G21    22296496.280          -117168893.78847                  25.000                  59.000               -2280.640              4606.00000                                 849.011          
G22    25302568.524          -131757115.86028                 748.000                 331.000               -3638.151              2849.00000                                   2.010          
G23    22974831.229          -94078041.99608                 251.000                 179.000                 655.109              3170.00000                                 130.010          
G29    21214399.495          -86869432.01774                  76.000                  81.000               -1992.282              4178.00000                                 866.011          
G34    23693746.592          -95404905.37358                  25.000                  70.000                 107.911              4394.00000                                 868.011          
G36    24538755.280          -98807398.74744                 295.000                1499.000               -1594.258              1836.00000                                          
G38    36640311.512          -192546122.50576                  47.000                  70.000               -1088.124              4395.00000                                 867.011          
G39    38648705.188          -203100319.89611                 224.000                 155.000                 833.422              3250.00000                                  99.010          
G40    38947138.595          -202807970.50733                 420.000                1499.000               -2730.268              2238.00000                                          
G41    23219037.126          -124336925.71257                 748.000                 362.000               -4713.573              2891.00000                                  12.010          
G42    22802082.393          -119825752.47594                  12.000                  50.000                 132.443              4902.00000                                 868.011          
G43    23938559.878          -125798111.37153                 322.000                 144.000                1453.856              3359.00000                                 127.010          
G44    23406193.509          -121882191.92942                 720.000                1499.000               -3844.720              2837.00000                                          
G50    21914802.102          -115163087.72331                  33.000                  64.000               -1081.312              4508.00000                                 850.011          
G56    21200686.312          -88207297.67033                 268.000                 239.000               -3304.632              3092.00000                                  14.010          
G57    19157116.339          -79676886.69563                  21.000                  69.000                -315.636              4408.00000                                 865.011          
G58    21680745.969          -90236262.66096                 240.000                 153.000                2098.987              3261.00000                                 140.010          
G60    37101756.114          -156989674.79164                  18.000                  87.000                -771.339              4054.00000                                 868.011          
> 2025 05 29  9  1 50.0000000  0 30
E43    20945738.928          -111770482.56927                 117.000                 134.000                1065.314              3459.00000                                 231.010          
G02    37015192.299          -156623392.05638                 202.000                1499.000                -749.613              2766.00000                                          
G05    21770000.328          -87658769.35776                  45.000                 107.000                -838.177              3721.00000                                 858.011          
G08    36886537.912          -156079022.72549                  42.000                 135.000                -902.571              3445.00000                                 868.011          
G09    26302461.641          -138220368.19764                 782.000                1499.000               -3399.953              2514.00000                                          
G11    22396942.591          -94768813.92090                  27.000                 102.000                 384.884              3780.00000                                 862.011          
G12    22005252.611          -93111424.65876                 495.000                1499.000               -2194.150              1494.00000                                          
G13    36924592.565          -156240035.20383                  34.000                 130.000                -860.829              3498.00000                                 868.011          
G15    19710169.248          -80709848.43846                  32.000                  64.000                -415.316              4509.00000                                 867.011          
G16    39360573.843          -158488730.77277                 197.000                 167.000                 554.739              3127.00000                                  67.010          
G18    22222438.469          -90997109.81391                  48.000                  77.000                1373.443              4243.00000                                 143.010          
G20    23580735.359          -123917599.80279                 683.000                 714.000               -3043.337              2419.00000                                          
G21    22296930.375          -117171174.67250                  21.000                  59.000               -2281.031              4603.00000                                 850.011          
G22    25303267.385          -131760754.44812                 745.000                 231.000               -3638.609              2873.00000                                   3.010          
G23    22974672.575          -94077386.55899                 341.000                 229.000                 655.422              3159.00000                                 131.010          
G29    21214886.272          -86871424.51435                  79.000                  80.000               -1992.774              4200.00000                                 867.011          
G34    23693719.834          -95404797.62740                  26.000                  70.000                 107.626              4387.00000                                 869.011          
G36    24539151.941          -98808995.65677                 305.000                1499.000               -1593.515              1785.00000                                          
G38    36640518.593          -192547210.61313                  46.000                  70.000               -1088.074              4393.00000                                 868.011          
G39    38648546.848          -203099486.42138                 185.000                 152.000                 833.673              3272.00000                                 100.010          
G40    38947661.431          -202810692.99739                 436.000                1499.000               -2730.318              2274.00000                                          
G41    23219917.039          -124341639.10647                 748.000                 304.000               -4713.349              2895.00000                                  13.010          
G42    22802057.194          -119825620.25923                  12.000                  50.000                 132.052              4901.00000                                 869.011          
G43    23938283.140          -125796657.75532                 340.000                 144.000                1453.655              3354.00000                                 128.010          
G44    23406931.365          -121886034.50251                 726.000                1499.000               -3845.743              2811.00000                                          
G50    21915007.968          -115164169.35359                  30.000                  64.000               -1081.804              4511.00000                                 851.011          
G56    21201480.678          -88210603.21044                 209.000                 207.000               -3306.208              3074.00000                                  15.010          
G57    19157192.514          -79677202.64349                  24.000                  70.000                -316.195              4396.00000                                 866.011          
G58    21680242.063          -90234164.34219                 192.000                 186.000                2098.417              3250.00000                                 141.010          
G60    37101938.388          -156990446.11956                  18.000                  86.000                -771.339              4065.00000                                 869.011          
> 2025 05 29  9  1 51.0000000  0 30
E43    20945539.887          -111769416.65168                 108.000                 132.000                1066.884              3480.00000                                 232.010          
G02    37015369.356          -156624140.96941                 205.000                1499.000                -748.065              2946.00000                                          
G05    21770208.344          -87659606.78984                  42.000                 106.000                -836.646              3731.00000                                 859.011          
G08    36886751.084          -156079924.44725                  48.000                 135.000                -900.845              3446.00000                                 869.011          
G09    26303108.561          -138223767.68094                 723.000                1499.000               -3397.662              2410.00000                                          
G11    22396851.452          -94768428.39280                  27.000                 101.000                 386.493              3784.00000                                 863.011          
G12    22005774.402          -93113632.81403                 427.000                1499.000               -2194.267              1527.00000                                          
G13    36924795.890          -156240895.13614                  35.000                 130.000                -858.862              3491.00000                                 869.011          
G15    19710270.290          -80710263.21217                  28.000                  64.000                -414.126              4509.00000                                 868.011          
G16    39360435.747          -158488174.94543                 215.000                 168.000                 556.522              3119.00000                                  68.010          
G18    22222102.872          -90995735.70895                  45.000                  77.000                1374.930              4249.00000                                 144.010          
G20    23581313.332          -123920636.86109                 715.000                1499.000               -3041.052              2375.00000                                          
G21    22297364.300          -117173454.78045                  18.000                  60.000               -2279.075              4600.00000                                 851.011          
G22    25303965.750          -131764391.95230                 744.000                 250.000               -3636.290              2870.00000                                   4.010          
G23    22974511.488          -94076730.45129                 353.000                 163.000                 656.975              3162.00000                                 132.010          
G29    21215372.692          -86873416.69177                  84.000                  79.000               -1991.522              4217.00000                                 868.011          
G34    23693692.906          -95404689.24772                  27.000                  69.000                 109.219              4402.00000                                 870.011          
G36    24539546.999          -98810586.58784                 302.000                1499.000               -1591.956              1735.00000                                          
G38    36640725.466          -192548297.68476                  50.000                  71.000               -1085.950              4380.00000                                 869.011          
G39    38648388.057          -203098652.03338                 171.000                 155.000                 835.484              3250.00000                                 101.010          
G40    38948185.481          -202813422.31550                 447.000                1499.000               -2730.318              2274.00000                                          
G41    23220796.269          -124346351.35536                 752.000                 396.000               -4710.717              2913.00000                                  14.010          
G42    22802031.848          -119825487.36084                  13.000                  50.000                 133.863              4889.00000                                 870.011          
G43    23938006.408          -125795203.59529                 348.000                 145.000                1455.102              3345.00000                                 129.010          
G44    23407669.241          -121889876.38969                 738.000                1499.000               -3843.865              2808.00000                                          
G50    21915213.681          -115165250.26908                  29.000                  64.000               -1079.870              4505.00000                                 852.011          
G56    21202274.782          -88213908.21087                 305.000                 391.000               -3304.666              3097.00000                                  16.010          
G57    19157268.338          -79677518.41855                  20.000                  70.000                -315.240              4398.00000                                 867.011          
G58    21679737.956          -90232065.40729                 222.000                 170.000                2099.825              3252.00000                                 142.010          
G60    37102120.518          -156991216.68439                  19.000                  86.000                -769.657              4064.00000                                 870.011          
> 2025 05 29  9  1 52.0000000  0 30
E43    20945341.200          -111768349.86678                 149.000                 131.000                1067.029              3486.00000                                 233.010          
G02    37015546.041          -156624888.84318                 180.000                1499.000                -747.310              2881.00000                                          
G05    21770416.236          -87660443.57247                  43.000                 105.000                -836.556              3746.00000                                 860.011          
G08    36886963.992          -156080825.03394                  46.000                 136.000                -900.213              3436.00000                                 870.011          
G09    26303764.563          -105914359.84778                 468.000                1499.000               -2604.618              2323.00000                                          
G11    22396760.168          -94768042.19962                  26.000                 100.000                 386.342              3800.00000                                 864.011          
G12    22006293.184          -93115828.08684                 455.000                1499.000               -2194.083              1555.00000                                          
G13    36924998.921          -156241753.99225                  34.000                 130.000                -858.533              3496.00000                                 870.011          
G15    19710371.556          -80710677.44062                  31.000                  64.000                -414.176              4504.00000                                 869.011          
G16    39360297.523          -158487618.09655                 234.000                 199.000                 557.041              3135.00000                                  69.010          
G18    22221766.933          -90994360.73157                  41.000                  77.000                1375.187              4248.00000                                 145.010          
G20    23581892.132          -123923678.93622                 606.000                1499.000               -3043.242              2398.00000                                          
G21    22297798.071          -117175733.79842                  15.000                  59.000               -2278.773              4607.00000                                 852.011          
G22    25304663.264          -131768028.14728                 712.000                 306.000               -3635.620              2882.00000                                   5.010          
G23    22974351.387          -94076073.38959                 381.000                 164.000                 657.210              3159.00000                                 133.010          
G29    21215859.302          -86875408.32159                  92.000                  79.000               -1991.561              4215.00000                                 869.011          
G34    23693665.772          -95404580.01353                  27.000                  69.000                 109.498              4404.00000                                 871.011          
G36    24539938.079          -98812160.70727                 277.000                1499.000               -1590.073              1728.00000                                          
G38    36640932.072          -192549383.32319                  46.000                  70.000               -1085.162              4385.00000                                 870.011          
G39    38648229.090          -203097816.38317                 175.000                 157.000                 836.015              3230.00000                                 102.010          
G40    38948710.607          -202816157.47978                 540.000                1499.000               -2730.000              2335.00000                                          
G41    23221676.381          -124351062.23482                 750.000                 286.000               -4710.359              2893.00000                                  15.010          
G42    22802006.271          -119825353.46395                  15.000                  50.000                 134.136              4880.00000                                 871.011          
G43    23937729.486          -125793748.37786                 333.000                 145.000                1455.186              3346.00000                                 130.010          
G44    23408406.905          -121893717.28590                 748.000                 489.000               -3844.150              2761.00000                                          
G50    21915419.237          -115166330.20201                  27.000                  64.000               -1079.630              4502.00000                                 853.011          
G56    21203069.436          -88217212.52107                 306.000                 227.000               -3304.040              3050.00000                                  17.010          
G57    19157344.167          -79677833.73681                  18.000                  69.000                -315.323              4405.00000                                 868.011          
G58    21679232.715          -90229965.65344                 276.000                 169.000                2099.853              3261.00000                                 143.010          
G60    37102302.382          -156991986.19090                  20.000                  86.000                -769.232              4074.00000                                 871.011          
> 2025 05 29  9  1 53.0000000  0 30
E43    20945141.471          -111767282.90799                 120.000                 128.000                1066.878              3514.00000                                 234.010          
G02    37015722.590          -156625636.06857                 159.000                1499.000                -747.053              3048.00000                                          
G05    21770624.175          -87661280.12603                  50.000                 106.000                -836.417              3740.00000                                 861.011          
G08    36887176.656          -156081725.02892                  48.000                 132.000                -899.995              3473.00000                                 871.011          
G09    26304411.383          -105916964.31907                 437.000                1499.000               -2604.618              2295.00000                                          
G11    22396668.867          -94767655.81128                  27.000                  99.000                 386.426              3812.00000                                 865.011          
G12    22006808.091          -93118006.13764                 470.000                1499.000               -2194.262              1537.00000                                          
G13    36925201.605          -156242612.13658                  34.000                 156.000                -857.683              3498.00000                                 871.011          
G15    19710472.735          -80711091.58850                  32.000                  64.000                -414.232              4513.00000                                 870.011          
G16    39360159.344          -158487060.73147                 184.000                 201.000                 557.712              3117.00000                                  70.010          
G18    22221431.337          -90992985.29701                  44.000                  77.000                1375.572              4257.00000                                 146.010          
G20    23582470.590          -123926719.36195                 505.000                1499.000               -3043.242              2340.00000                                          
G21    22298231.733          -117178012.33273                  14.000                  60.000               -2278.348              4596.00000                                 853.011          
G22    25305361.277          -131771663.56479                 699.000                 374.000               -3634.955              2927.00000                                   6.010          
G23    22974189.062          -94075415.85248                 411.000                 286.000                 657.277              3114.00000                                 134.010          
G29    21216346.074          -86877399.85016                  95.000                  79.000               -1991.600              4212.00000                                 870.011          
G34    23693638.549          -95404470.38768                  27.000                  70.000                 109.666              4390.00000                                 872.011          
G36    24540329.930          -98813738.78332                 267.000                1499.000               -1588.072              1706.00000                                          
G38    36641138.503          -192550468.22208                  45.000                  71.000               -1084.676              4374.00000                                 871.011          
G39    38648069.999          -203096980.00156                 169.000                 189.000                 837.021              3223.00000                                 103.010          
G40    38949233.256          -202818877.71160                 609.000                1499.000               -2728.592              2358.00000                                          
G41    23222554.471          -124355724.29784                 758.000                1499.000               -4709.728              2835.00000                                          
G42    22801980.619          -119825219.18772                  17.000                  50.000                 134.377              4867.00000                                 872.011          
G43    23937452.374          -125792292.71177                 331.000                 150.000                1455.728              3293.00000                                 131.010          
G44    23409144.599          -121897560.59783                 760.000                 600.000               -3843.379              2729.00000                                          
G50    21915624.705          -115167409.72702                  22.000                  65.000               -1079.479              4488.00000                                 854.011          
G56    21203864.509          -88220516.68106                 273.000                 219.000               -3303.755              3112.00000                                  18.010          
G57    19157420.132          -79678149.10376                  19.000                  69.000                -315.569              4409.00000                                 869.011          
G58    21678728.138          -90227865.52654                 355.000                 188.000                2099.886              3233.00000                                 144.010          
G60    37102484.057          -156992755.12264                  19.000                  85.000                -768.830              4088.00000                                 872.011          
> 2025 05 29  9  1 54.0000000  0 30
E43    20944942.364          -111766215.91773                 148.000                 126.000                1066.990              3538.00000                                 235.010          
G02    37015899.107          -156626381.91102                 162.000                1499.000                -746.997              2970.00000                                          
G05    21770832.001          -87662116.57504                  58.000                 106.000                -836.159              3737.00000                                 862.011          
G08    36887389.092          -156082624.41528                  57.000                 134.000                -898.995              3457.00000                                 872.011          
G09    26305057.886          -105919566.61727                 364.000                1499.000               -2604.618              2309.00000                                          
G11    22396577.613          -94767269.30168                  28.000                  99.000                 386.638              3815.00000                                 866.011          
G12    22007325.090          -93120194.26170                 447.000                1499.000               -2193.910              1440.00000                                          
G13    36925404.338          -156243469.86256                  33.000                 130.000                -857.326              3498.00000                                 872.011          
G15    19710573.852          -80711505.76407                  32.000                  64.000                -414.249              4511.00000                                 871.011          
G16    39360020.769          -158486502.93294                 190.000                 201.000                 558.148              3123.00000                                  71.010          
G18    22221095.135          -90991609.54699                  43.000                  77.000                1375.902              4244.00000                                 147.010          
G20    23583048.323          -123929755.03588                 493.000                1499.000               -3039.855              2318.00000                                          
G21    22298665.343          -117180290.51672                  15.000                  60.000               -2277.963              4583.00000                                 854.011          
G22    25306059.180          -131775298.38218                 707.000                 208.000               -3634.100              2902.00000                                   7.010          
G23    22974028.113          -94074757.84648                 395.000                 176.000                 658.836              3031.00000                                 135.010          
G29    21216832.486          -86879391.37782                 100.000                  79.000               -1991.522              4208.00000                                 871.011          
G34    23693611.258          -95404360.45175                  26.000                  70.000                 110.118              4396.00000                                 873.011          
G36    24540725.917          -98815333.82885                 257.000                1499.000               -1586.116              1643.00000                                          
G38    36641344.797          -192551552.42111                  46.000                  72.000               -1083.793              4359.00000                                 872.011          
G39    38647910.915          -203096143.15018                 142.000                 222.000                 836.898              3208.00000                                 104.010          
G40    38949755.977          -202821599.65601                 661.000                1499.000               -2727.189              2378.00000                                          
G41    23223433.335          -124360430.61910                 756.000                 310.000               -4708.549              2859.00000                                          
G42    22801954.946          -119825084.63453                  19.000                  50.000                 134.757              4850.00000                                 873.011          
G43    23937175.147          -125790836.84485                 340.000                 152.000                1455.806              3273.00000                                 132.010          
G44    23409882.176          -121901403.67936                 761.000                 402.000               -3842.988              2682.00000                                          
G50    21915830.121          -115168488.96062                  20.000                  65.000               -1079.043              4483.00000                                 855.011          
G56    21204658.865          -88223820.91623                 286.000                 349.000               -3304.202              3135.00000                                  19.010          
G57    19157495.884          -79678464.57539                  21.000                  69.000                -315.513              4418.00000                                 870.011          
G58    21678222.551          -90225765.14639                 432.000                 202.000                2100.294              3245.00000                                 145.010          
G60    37102665.712          -156993523.58078                  17.000                  86.000                -768.148              4071.00000                                 873.011          
> 2025 05 29  9  1 55.0000000  0 30
E43    20944742.490          -111765148.19440                 159.000                 125.000                1068.605              3545.00000                                 236.010          
G02    37016075.284          -156627127.69707                 184.000                1499.000                -745.209              2960.00000                                          
G05    21771039.557          -87662952.40374                  57.000                 106.000                -835.232              3737.00000                                 863.011          
G08    36887601.420          -156083522.80927                  57.000                 134.000                -897.665              3452.00000                                 873.011          
G09    26305693.889          -138237353.63709                 776.000                1499.000               -3395.315              2274.00000                                          
G11    22396486.138          -94766882.13894                  28.000                  99.000                 387.739              3816.00000                                 867.011          
G12    22007848.194          -93122407.97827                 431.000                1499.000               -2193.591              1478.00000                                          
G13    36925606.839          -156244326.46233                  33.000                 130.000                -855.811              3497.00000                                 873.011          
G15    19710675.246          -80711919.40898                  44.000                  63.000                -413.115              4521.00000                                 872.011          
G16    39359881.691          -158485944.14385                 224.000                 164.000                 559.444              3158.00000                                  72.010          
G18    22220759.040          -90990232.93503                  49.000                  76.000                1377.266              4264.00000                                 148.010          
G20    23583626.091          -123932791.92307                 501.000                 753.000               -3037.810              2290.00000                                          
G21    22299098.803          -117182567.65812                  17.000                  60.000               -2276.287              4586.00000                                 855.011          
G22    25306756.708          -131778931.86232                 719.000                 345.000               -3632.312              2881.00000                                   8.010          
G23    22973868.238          -94074099.01907                 382.000                 244.000                 660.138              3056.00000                                 136.010          
G29    21217319.018          -86881382.35803                 105.000                  78.000               -1990.427              4234.00000                                 872.011          
G34    23693583.760          -95404249.67462                  26.000                  70.000                 111.398              4388.00000                                 874.011          
G36    24541119.593          -98816919.03141                 284.000                1499.000               -1584.529              1600.00000                                          
G38    36641550.859          -192552635.30892                  45.000                  71.000               -1081.949              4361.00000                                 873.011          
G39    38647751.754          -203095304.97535                 123.000                 159.000                 839.289              3206.00000                                 105.010          
G40    38950279.885          -202824328.26750                 547.000                1499.000               -2727.882              2412.00000                                          
G41    23224312.921          -124365140.71325                 754.000                 313.000               -4706.800              2839.00000                                          
G42    22801929.114          -119824949.14057                  20.000                  50.000                 136.299              4845.00000                                 874.011          
G43    23936897.719          -125789379.98753                 349.000                 154.000                1457.890              3259.00000                                 133.010          
G44    23410619.593          -121905245.79245                 766.000                 516.000               -3841.116              2647.00000                                   0.010          
G50    21916035.370          -115169567.24415                  18.000                  65.000               -1077.456              4486.00000                                 856.011          
G56    21205452.951          -88227124.40632                 232.000                 168.000               -3302.660              3120.00000                                  20.010          
G57    19157571.630          -79678779.65780                  23.000                  69.000                -314.625              4414.00000                                 871.011          
G58    21677717.400          -90223663.97060                 405.000                 189.000                2102.010              3223.00000                                 146.010          
G60    37102847.118          -156994291.03824                  18.000                  86.000                -766.678              4079.00000                                 874.011          
> 2025 05 29  9  1 56.0000000  0 30
E43    20944542.876          -111764079.50234                 133.000                 123.000                1068.739              3563.00000                                 237.010          
G02    37016251.322          -156627873.31474                 170.000                1499.000                -744.494              2971.00000                                          
G05    21771246.999          -87663787.42141                  54.000                 104.000                -835.075              3755.00000                                 864.011          
G08    36887813.518          -156084419.85046                  53.000                 132.000                -896.754              3478.00000                                 874.011          
G09    26306339.995          -138240748.61300                 788.000                1499.000               -3394.449              2233.00000                                          
G11    22396394.288          -94766494.16918                  27.000                  99.000                 387.800              3814.00000                                 868.011          
G12    22008365.179          -93124594.53156                 451.000                1499.000               -2193.775              1543.00000                                          
G13    36925808.838          -156245181.80424                  33.000                 128.000                -855.029              3511.00000                                 874.011          
G15    19710775.969          -80712332.39626                  42.000                  63.000                -413.098              4534.00000                                 873.011          
G16    39359742.685          -158485384.21645                 198.000                 192.000                 559.874              3192.00000                                  73.010          
G18    22220422.754          -90988855.32129                  58.000                  76.000                1377.646              4272.00000                                 149.010          
G20    23584204.031          -123935828.99813                 409.000                 770.000               -3037.347              2231.00000                                          
G21    22299531.958          -117184843.55059                  18.000                  60.000               -2275.789              4594.00000                                 856.011          
G22    25307453.590          -131782551.84380                 627.000                1499.000               -3631.675              2825.00000                                          
G23    22973706.710          -94073439.18774                 374.000                 190.000                 659.445              3072.00000                                 137.010          
G29    21217805.026          -86883372.67266                  94.000                  77.000               -1990.354              4250.00000                                 873.011          
G34    23693556.029          -95404137.95246                  26.000                  70.000                 111.767              4396.00000                                 875.011          
G36    24541514.606          -98818508.78602                 259.000                1499.000               -1582.942              1586.00000                                          
G38    36641756.646          -192553716.63798                  45.000                  71.000               -1081.117              4370.00000                                 874.011          
G39    38647592.009          -203094465.38207                 139.000                 160.000                 839.842              3195.00000                                 106.010          
G40    38950801.915          -202827046.05699                 453.000                1499.000               -2727.882              2451.00000                                          
G41    23225191.975          -124369847.19304                 758.000                 436.000               -4705.833              2814.00000                                          
G42    22801903.060          -119824812.49326                  20.000                  50.000                 136.679              4850.00000                                 875.011          
G43    23936619.991          -125787922.04626                 325.000                 156.000                1458.036              3233.00000                                 134.010          
G44    23411356.534          -121909077.73653                 776.000                1499.000               -3840.596              2561.00000                                          
G50    21916240.353          -115170644.37052                  17.000                  65.000               -1077.093              4489.00000                                 857.011          
G56    21206246.403          -88230427.19063                 273.000                 291.000               -3302.475              3086.00000                                  21.010          
G57    19157647.155          -79679094.17232                  20.000                  68.000                -314.647              4432.00000                                 872.011          
G58    21677212.304          -90221561.91357                 311.000                 154.000                2101.982              3255.00000                                 147.010          
G60    37103028.217          -156995057.34014                  19.000                  85.000                -766.080              4087.00000                                 875.011          
> 2025 05 29  9  1 57.0000000  0 30
E43    20944343.091          -111763010.96021                 104.000                 125.000                1067.974              3541.00000                                 238.010          
G02    37016427.271          -156628616.61195                 190.000                1499.000                -744.265              2820.00000                                          
G05    21771454.450          -87664622.47033                  54.000                 105.000                -835.450              3745.00000                                 865.011          
G08    36888025.361          -156085316.60016                  61.000                 135.000                -896.933              3450.00000                                 875.011          
G09    26306974.226          -138244081.78253                 797.000                1499.000               -3395.472              2213.00000                                          
G11    22396302.767          -94766106.22947                  26.000                  99.000                 387.538              3816.00000                                 869.011          
G12    22008882.566          -93126784.40336                 473.000                1499.000               -2193.625              1515.00000                                          
G13    36926010.808          -156246036.83132                  36.000                 130.000                -855.498              3500.00000                                 875.011          
G15    19710876.868          -80712745.55512                  41.000                  62.000                -413.657              4548.00000                                 874.011          
G16    39359603.523          -158484824.02388                 175.000                 248.000                 559.673              3146.00000                                  74.010          
G18    22220086.544          -90987477.53779                  76.000                  76.000                1377.366              4274.00000                                 150.010          
G20    23584781.737          -123938864.72185                 337.000                1499.000               -3037.699              2335.00000                                          
G21    22299965.094          -117187119.30143                  21.000                  60.000               -2276.214              4595.00000                                 857.011          
G22    25308150.566          -131786181.49654                 551.000                 279.000               -3632.334              2803.00000                                          
G23    22973545.125          -94072778.99788                 329.000                 208.000                 659.791              3064.00000                                 138.010          
G29    21218291.046          -86885363.14644                  78.000                  77.000               -1990.930              4253.00000                                 874.011          
G34    23693528.217          -95404026.04796                  27.000                  70.000                 111.554              4386.00000                                 876.011          
G36    24541905.518          -98820082.77054                 244.000                1499.000               -1581.277              1653.00000                                          
G38    36641962.278          -192554797.53986                  50.000                  71.000               -1081.295              4368.00000                                 875.011          
G39    38647432.395          -203093625.53429                 143.000                 191.000                 839.446              3208.00000                                 107.010          
G40    38951324.300          -202829767.33429                 457.000                1499.000               -2722.216              2470.00000                                          
G41    23226071.182          -124374553.29730                 760.000                 406.000               -4706.370              2766.00000                                          
G42    22801876.993          -119824675.79292                  20.000                  50.000                 136.103              4849.00000                                 876.011          
G43    23936342.381          -125786464.00144                 333.000                 158.000                1457.376              3211.00000                                 135.010          
G44    23412093.929          -121912916.53789                 784.000                1499.000               -3841.775              2581.00000                                          
G50    21916445.355          -115171721.43254                  15.000                  65.000               -1077.585              4488.00000                                 858.011          
G56    21207040.544          -88233730.10710                 234.000                 296.000               -3303.034              3054.00000                                  22.010          
G57    19157723.064          -79679409.00046                  18.000                  68.000                -315.480              4439.00000                                 873.011          
G58    21676706.263          -90219459.68723                 274.000                 229.000                2101.976              3268.00000                                 148.010          
G60    37103209.234          -156995823.33717                  18.000                  86.000                -766.382              4065.00000                                 876.011          
> 2025 05 29  9  1 58.0000000  0 30
E43    20944143.106          -111761943.77309                  93.000                 124.000                1066.074              3558.00000                                 239.010          
G02    37016603.367          -156629361.77710                 195.000                1499.000                -746.400              2973.00000                                          
G05    21771662.107          -87665458.53838                  53.000                 106.000                -836.908              3738.00000                                 866.011          
G08    36888237.533          -156086213.99821                  66.000                 136.000                -898.118              3440.00000                                 876.011          
G09    26307632.524          -138247542.21121                 804.000                1499.000               -3395.958              2194.00000                                          
