     3.02           OBSERVATION DATA    M                   RINEX VERSION / TYPE
G = GPS,  R = GLONASS,  E = GALILEO,  C = BDS,  M = MIXED   COMMENT             
UnicoreConvert      Unicore             20250710 020304 UTC PGM / RUN BY / DATE 
UnicoreRoof 001                                             MARKER NAME         
GEODETIC                                                    MARKER TYPE         
Unicore-001         Unicore HPL EVT                         OBSERVER / AGENCY   
Unicore#001         GEODETIC            Unicore UB4B0       REC # / TYPE / VERS 
Ant001              ROVER                                   ANT # / TYPE        
 -1326002.8281  5323044.2303  3243889.2750                  APPROX POSITION XYZ 
        0.0000        0.0000        0.0000                  ANTENNA: DELTA H/E/N
G    8 C1C L1C D1C S1C C2W L2W D2W S2W                      SYS / # / OBS TYPES 
R    8 C1C L1C D1C S1C C2C L2C D2C S2C                      SYS / # / OBS TYPES 
C   16 C1I L1I D1I S1I C7I L7I D7I S7I C6I L6I D6I S6I C1Q  SYS / # / OBS TYPES 
       L1Q D1Q S1Q                                          SYS / # / OBS TYPES 
E    8 C1C L1C D1C S1C C7Q L7Q D7Q S7Q                      SYS / # / OBS TYPES 
J    8 C1C L1C D1C S1C C2L L2L D2L S2L                      SYS / # / OBS TYPES 
  2025     5    28     9     2    6.0000000     GPS         TIME OF FIRST OBS   
  2025     5    28     9    12   27.0000000     GPS         TIME OF LAST OBS    
     0                                                      RCV CLOCK OFFS APPL 
                                                            END OF HEADER       
> 2025 05 28 09 02  6.0000000  0 27
G05  21712605.036   114100483.70906     -2570.827          41.170    21712619.639    88909519.91505     -2003.385          34.040  
G13  20565517.067   108072511.79506     -2815.220          41.350    20565528.455    84212410.65405     -2193.643          33.730  
G15  19709951.021   103576497.55308      -532.398          48.990    19709966.421    80709018.99407      -414.847          44.850  
G18  22223086.021   116783083.77406      1762.304          38.310    22223109.578    90999857.08507      1373.287          42.300  
G23  22974964.303   120734244.79405       840.412          34.050    22974992.026    94078697.68505       655.047          31.540  
G29  21213897.881   111479783.40908     -2556.728          48.090    21213912.657    86867440.19606     -1992.321          41.780  
R04  23218156.989   124332212.55204     -4714.333          29.200                                                                  
R05  19814699.717   105920911.28507     -3106.957          45.590    19814702.742    82382966.47407     -2416.395          45.670  
R06  20946136.888   111772614.24405      1065.901          33.810                                                                  
R19  21199898.531   113405153.62204     -4249.707          28.960    21199891.884    88203992.96105     -3305.096          30.720  
R20  19157033.241   102441313.34005      -405.492          33.340    19157040.538    79676571.54807      -315.491          44.340  
R21  21681249.840   116020704.60605      2697.784          32.380    21681250.000    90238361.53805      2098.009          32.500  
C02  37014838.542   192745977.17805      -923.034          34.400    37014846.289   149043446.76205      -713.772          34.400                                                                                                                                  
C08  36886115.385   192075677.75507     -1111.555          43.520    36886122.326   148525136.96306      -859.428          41.360    36886111.312   156077217.66105      -903.024          34.320                                                                  
C11  22397126.457   116627729.26107       473.983          43.940    22397138.086    90184000.73207       366.526          44.920    22397124.747    94769584.66506       385.168          37.720                                                                  
C12  22004248.688   114581857.98105     -2700.177          30.830                                                                                                                                                                                                  
C13  36924180.390   192273893.97507     -1060.023          43.120    36924194.300   148678446.03306      -819.776          38.250    36924185.633   156238313.72805      -861.388          35.000                                                                  
C21  22296069.470   116101482.91807     -2260.457          46.520                                                                    22296068.130    94341960.90706     -1836.656          38.910                                                                  
C22  25301869.923   131753477.56304     -3638.967          28.880                                                                                                                                                                                                  
C34  21406132.079   111467350.59707     -1186.467          45.800                                                                    21406136.191    90576364.22106      -964.011          39.720                                                                  
C38  36640109.979   190794670.50507     -1078.949          44.290                                                                    36640112.130   155036305.48006      -876.733          38.660                                                                  
C39  38648869.216   201254804.97005       825.375          30.480                                                                                                                                                                                                  
C42  22802111.287   118736587.58008       130.900          48.260                                                                    22802123.152    96483264.76306       106.509          41.400                                                                  
C50  21914604.782   114115101.92407     -1071.953          47.280                                                                    21914595.645    92727835.07406      -870.949          41.670                                                                  
C60  37101584.843   193197691.76708      -949.806          49.170                                                                    37101573.922   156988903.68606      -771.841          40.580                                                                  
E05  21769568.411   114399865.02907     -1093.404          42.460    21769584.089    87657094.09706      -837.724          37.340  
E34  23693755.920   124511541.89907       140.311          44.790    23693773.405    95405013.48907       107.604          43.960  
