     3.02           OBSERVATION DATA    M                   RINEX VERSION / TYPE
G = GPS,  R = GLONASS,  E = GALILEO,  C = BDS,  M = MIXED   COMMENT             
UnicoreConvert      Unicore             20250729 100837 UTC PGM / RUN BY / DATE
UnicoreRoof 001                                             MARKER NAME         
GEODETIC                                                    MARKER TYPE         
Unicore-001         Unicore HPL EVT                         OBSERVER / AGENCY   
Unicore#001         GEODETIC            Unicore UB4B0       REC # / TYPE / VERS 
Ant001              ROVER                                   ANT # / TYPE        
 -1326002.8464  5323044.2529  3243889.2835                  APPROX POSITION XYZ 
        0.0000        0.0000        0.0000                  ANTENNA: DELTA H/E/N
G    8 C1C L1C D1C S1C C2W L2W D2W S2W                      SYS / # / OBS TYPES 
R    8 C1C L1C D1C S1C C2C L2C D2C S2C                      SYS / # / OBS TYPES 
C   16 C1I L1I D1I S1I C7I L7I D7I S7I C6I L6I D6I S6I C1Q  SYS / # / OBS TYPES 
       L1Q D1Q S1Q                                          SYS / # / OBS TYPES 
E    8 C1C L1C D1C S1C C7Q L7Q D7Q S7Q                      SYS / # / OBS TYPES 
J    8 C1C L1C D1C S1C C2L L2L D2L S2L                      SYS / # / OBS TYPES 
  2025     5    29     9     1    48.0000000     GPS         TIME OF FIRST OBS    
  2025     5    29     9    12     9.0000000     GPS         TIME OF LAST OBS     
     0                                                      RCV CLOCK OFFS APPL  
                                                            END OF HEADER        
> 2025 05 29 09 01  48.0000000  0 29
G05  21712605.036   114100483.70898      -2570.827                41.170    21712619.639   88909519.91518      -2003.385                34.040  
G13  20565517.067   108072511.79512      -2815.220                41.350    20565528.455   84212410.65373      -2193.643                33.730  
G15  19709951.021   103576497.55305       -532.398                48.990    19709966.421   80709018.99428       -414.847                44.850  
G18  22223086.021   116783083.77418       1762.304                38.310    22223109.578   90999857.08549       1373.287                42.300  
G23  22974964.303   120734244.79416        840.412                34.050    22974992.026   94078697.68519        655.047                31.540  
G29  21213897.881   111479783.40949      -2556.728                48.090    21213912.657   86867440.19589      -1992.321                41.780  
R04  23218156.989   124332212.55222      -4714.333                29.200  
R05  19814699.717   105920911.28456      -3106.957                45.590    19814702.742   82382966.47407      -2416.395                45.670  
R06  20946136.888   111772614.24374       1065.901                33.810  
R19  21199898.531   113405153.62216      -4249.707                28.960    21199891.884   88203992.96062      -3305.096                30.720  
R20  19157033.241   102441313.33964       -405.492                33.340    19157040.538   79676571.54783       -315.491                44.340  
R21  21681249.840   116020704.60578       2697.784                32.380    21681250.000   90238361.53836       2098.009                32.500  
C02  37014838.542   192745977.17802       -923.034                34.400    37014846.289   149043446.76161       -713.772                34.400  
C08  36886115.385   192075677.75511      -1111.555                43.520    36886122.326   148525136.96336       -859.428                41.360    36886111.312   156077217.66139       -903.024                34.320  
C11  22397126.457   116627729.26111        473.983                43.940    22397138.086   90184000.73248        366.526                44.920    22397124.747   94769584.66458        385.168                37.720  
C12  22004248.688   114581857.98084      -2700.177                30.830  
C13  36924180.390   192273893.97544      -1060.023                43.120    36924194.300   148678446.03330       -819.776                38.250    36924185.633   156238313.72765       -861.388                35.000  
C16  39360849.971   158489840.93646        555.309                31.130  
C21  22296069.470   116101482.91807      -2260.457                46.520    22296068.130   94341960.90710      -1836.656                38.910    22296062.291   117166613.43258      -2281.148                46.020  
C22  25301869.923   131753477.56331      -3638.967                28.880  
C34  21406132.079   111467350.59696      -1186.467                45.800    21406136.191   90576364.22113       -964.011                39.720    21406126.875   112489956.10882      -1197.424                46.260  
C38  36640109.979   190794670.50548      -1078.949                44.290    36640112.130   155036305.47977       -876.733                38.660    36640104.481   192545034.58645      -1088.761                43.870  
C39  38648869.216   201254804.97005        825.375                30.480    38648863.792   203101153.65393        832.763                32.580  
C42  22802111.287   118736587.57978        130.900                48.260    22802123.152   96483264.76341        106.509                41.400    22802107.739   119825885.29856        132.052                49.030  
C43  23938836.781   125799565.47104       1453.375                33.720  
C50  21914604.782   114115101.92409      -1071.953                47.280    21914595.645   92727835.07399       -870.949                41.670    21914596.376   115162006.71906      -1081.804                45.020  
C60  37101584.843   193197691.76669       -949.806                49.170    37101573.922   156988903.68572       -771.841                40.580  
E05  21769568.411   114399865.02943      -1093.404                42.460    21769584.089   87657094.09652       -837.724                37.340  
E34  23693755.920   124511541.89946        140.311                44.790    23693773.405   95405013.48941        107.604                43.960  
> 2025 05 29 09 01  49.0000000  0 29
G05  21713094.132   114103053.75644      -2570.218                41.260    21713108.261   88911522.50174      -2002.670                34.130  
G13  20566052.428   108075326.30489      -2815.003                41.280    20566064.319   84214603.79357      -2193.498                33.780  
G15  19710052.308   103577029.32068       -532.225                49.090    19710067.662   80709433.36019       -414.724                44.950  
G18  22222750.641   116781320.71590       1762.735                38.380    22222773.943   90998483.28697       1373.600                42.320  
G23  22974804.836   120733403.30265        841.156                34.500    22974831.229   94078041.99608        655.109                31.700  
G29  21214384.289   111482339.58248      -2556.650                48.070    21214399.495   86869432.01774      -1992.282                41.780  
R04  23219037.126   124336925.71257      -4713.573                28.910  
R05  19815280.875   105924017.58667      -3106.784                45.490    19815283.831   82385382.49734      -2416.372                45.850  
R06  20945938.011   111771548.02183       1065.783                34.450  
R19  21200693.650   113409402.64774      -4249.685                28.940    21200686.312   88207297.67033      -3304.632                30.920  
R20  19157109.408   102441718.56213       -405.805                33.340    19157116.339   79676886.69563       -315.636                44.080  
R21  21680745.557   116018006.10218       2698.299                32.630    21680745.969   90236262.66096       2098.987                32.610  
C02  37015015.567   192746899.50250       -922.537                34.280    37015023.454   149044159.96087       -713.325                34.450  
C08  36886328.751   192076788.32886      -1110.722                43.510    36886335.511   148525995.74889       -858.947                41.390    36886324.625   156078120.10107       -902.365                34.280  
C11  22397035.277   116627254.63709        474.218                43.950    22397047.003   90183633.71912        366.694                44.990    22397033.577   94769199.00264        385.113                37.780  
C12  22004767.534   114584557.79440      -2700.020                30.770  
C13  36924383.791   192274953.14395      -1059.313                43.120    36924397.686   148679265.04003       -819.217                38.220    36924389.085   156239174.38698       -860.801                34.770  
C16  39360712.000   158489285.78176        555.019                31.230  
C21  22296503.437   116103742.54044      -2259.942                46.560    22296502.085   94343797.03727      -1836.332                39.040    22296496.280   117168893.78847      -2280.640                46.060  
C22  25302568.524   131757115.86028      -3638.151                28.490  
C34  21406359.744   111468536.47083      -1186.282                45.740    21406363.827   90577327.87909       -964.217                39.780    21406354.621   112491152.85942      -1197.150                46.260  
C38  36640317.007   190795748.52163      -1078.139                44.280    36640319.069   155037181.45995       -876.124                38.660    36640311.512   192546122.50576      -1088.124                43.950  
C39  38648710.308   201253978.75421        825.978                30.360    38648705.188   203100319.89611        833.422                32.500  
C42  22802085.904   118736455.96068        131.252                48.230    22802097.762   96483157.83158        106.571                41.400    22802082.393   119825752.47594        132.443                49.020  
C43  23938559.878   125798111.37153       1453.856                33.590  
C50  21914810.527   114116173.10430      -1071.472                47.340    21914801.359   92728705.49597       -870.664                41.600    21914802.102   115163087.72331      -1081.312                45.080  
C60  37101767.095   193198640.71426       -949.136                49.200    37101756.114   156989674.79164       -771.339                40.540  
E05  21769776.316   114400957.83377      -1093.203                42.410    21769792.057   87657931.45256       -837.735                37.280  
E34  23693729.041   124511400.78339        140.792                44.860    23693746.592   95404905.37358        107.911                43.940  
> 2025 05 29 09 01  50.0000000  0 29
G05  21713583.414   114105624.19162      -2570.480                41.190    21713597.569   88913525.44302      -2002.916                34.370  
G13  20566587.968   108078141.68745      -2815.640                41.290    20566600.447   84216797.58008      -2194.040                33.930  
G15  19710153.787   103577561.99691       -533.018                49.090    19710169.248   80709848.43846       -415.316                45.090  
G18  22222415.277   116779558.11111       1762.405                38.400    22222438.469   90997109.81391       1373.443                42.430  
G23  22974645.411   120732562.18278        840.960                34.610    22974672.575   94077386.55899        655.422                31.590  
G29  21214870.831   111484896.62750      -2557.360                47.950    21214886.272   86871424.51435      -1992.774                42.000  
R04  23219917.039   124341639.10647      -4713.349                28.950  
R05  19815862.197   105927124.60797      -3107.276                45.540    19815865.180   82387799.07089      -2416.713                45.810  
R06  20945738.928   111770482.56927       1065.314                34.590  
R19  21201489.359   113413652.45048      -4250.121                28.340    21201480.678   88210603.21044      -3306.208                30.740  
R20  19157185.600   102442124.80044       -406.755                33.110    19157192.514   79677202.64349       -316.195                43.960  
R21  21680241.079   116015308.24792       2697.829                33.060    21680242.063   90234164.34219       2098.417                32.500  
C02  37015192.809   192747822.10238       -922.610                34.570    37015200.514   149044873.38646       -713.566                34.490  
C08  36886542.086   192077899.10812      -1110.733                43.540    36886548.867   148526854.67505       -859.008                41.490    36886537.912   156079022.72549       -902.571                34.450  
C11  22396944.218   116626780.76457        473.592                43.950    22396956.006   90183267.29757        366.197                45.100    22396942.591   94768813.92090        384.884                37.800  
C12  22005286.661   114587258.36677      -2700.579                30.980  
C13  36924587.148   192276012.50308      -1059.408                43.140    36924601.027   148680084.20739       -819.262                38.400    36924592.565   156240035.20383       -860.829                34.980  
C16  39360573.843   158488730.77277        554.739                31.270  
C21  22296937.578   116106002.68749      -2260.317                46.630    22296936.060   94345633.60286      -1836.662                38.990    22296930.375   117171174.67250      -2281.031                46.030  
C22  25303267.385   131760754.44812      -3638.609                28.730  
C34  21406587.590   111469723.17510      -1186.958                45.720    21406591.705   90578292.15893       -964.569                39.890    21406582.502   112492350.45620      -1197.888                46.300  
C38  36640524.058   190796826.76108      -1078.284                44.350    36640526.187   155038057.59734       -876.051                38.660    36640518.593   192547210.61313      -1088.074                43.930  
C39  38648551.761   201253152.93888        825.559                30.680    38648546.848   203099486.42138        833.673                32.720  
C42  22802060.722   118736324.94938        130.738                48.220    22802072.605   96483051.38435        106.230                41.490    22802057.194   119825620.25923        132.052                49.010  
C43  23938283.140   125796657.75532       1453.655                33.540  
C50  21915016.377   114117244.89302      -1071.942                47.350    21915007.150   92729576.42222       -871.050                41.760    21915007.968   115164169.35359      -1081.804                45.110  
C60  37101949.380   193199589.97284       -949.264                49.210    37101938.388   156990446.11956       -771.339                40.650  
E05  21769984.312   114402051.35520      -1093.734                42.430    21770000.328   87658769.35776       -838.177                37.210  
E34  23693702.287   124511260.16119        140.462                44.940    23693719.834   95404797.62740        107.626                43.870  
> 2025 05 29 09 01  51.0000000  0 29
G05  21714072.487   114108193.73792      -2568.379                41.090    21714085.387   88915527.71042      -2001.435                34.150  
G13  20567123.474   108080956.65924      -2814.153                41.100    20567136.254   84218991.08155      -2192.866                33.800  
G15  19710255.162   103578094.29019       -531.476                48.990    19710270.290   80710263.21217       -414.126                45.090  
G18  22222079.788   116777794.65844       1764.568                38.400    22222102.872   90995735.70895       1374.930                42.490  
G23  22974485.435   120731720.17427        843.122                34.730    22974511.488   94076730.45129        656.975                31.620  
G29  21215357.272   111487453.27411      -2555.823                47.810    21215372.692   86873416.69177      -1991.522                42.170  
R04  23220796.269   124346351.35536      -4710.717                29.130  
R05  19816443.266   105930231.05242      -3105.471                45.470    19816446.339   82390215.19440      -2415.417                45.720  
R06  20945539.887   111769416.65168       1066.884                34.800  
R19  21202283.774   113417901.80732      -4248.606                28.310    21202274.782   88213908.21087      -3304.666                30.970  
R20  19157261.432   102442530.75596       -405.224                32.930    19157268.338   79677518.41855       -315.240                43.980  
R21  21679735.993   116012609.59900       2699.612                33.090    21679737.956   90232065.40729       2099.825                32.520  
C02  37015369.754   192748743.74432       -920.553                34.500    37015377.272   149045586.04218       -711.822                34.500  
C08  36886755.229   192079008.83416      -1108.532                43.590    36886761.920   148527712.77351       -857.187                41.350    36886751.084   156079924.44725       -900.845                34.460  
C11  22396853.136   116626306.34018        475.380                43.950    22396864.939   90182900.44162        367.555                45.030    22396851.452   94768428.39280        386.493                37.840  
C12  22005805.786   114589958.39756      -2699.098                30.920  
C13  36924790.391   192277070.79893      -1057.095                43.200    36924804.414   148680902.56369       -817.540                38.370    36924795.890   156240895.13614       -858.862                34.910  
C16  39360435.747   158488174.94543        556.522                31.190  
C21  22297371.546   116108262.06625      -2258.361                46.750    22297369.902   94347469.50540      -1834.957                38.990    22297364.300   117173454.78045      -2279.075                46.000  
C22  25303965.750   131764391.95230      -3636.290                28.700  
C34  21406815.378   111470909.42745      -1185.343                45.690    21406819.541   90579256.05743       -963.094                39.960    21406810.370   112493547.60622      -1196.351                46.200  
C38  36640730.915   190797903.92580      -1075.948                44.360    36640733.049   155038932.90354       -874.447                38.680    36640725.466   192548297.68476      -1085.950                43.800  
C39  38648393.170   201252326.12222        827.794                30.890    38648388.057   203098652.03338        835.484                32.500  
C42  22802035.403   118736193.26039        132.655                48.210    22802047.260   96482944.36464        107.783                41.470    22802031.848   119825487.36084        133.863                48.890  
C43  23938006.408   125795203.59529       1455.102                33.450  
C50  21915222.086   114118316.00210      -1070.165                47.390    21915212.893   92730446.77120       -869.491                41.830    21915213.681   115165250.26908      -1079.870                45.050  
C60  37102131.481   193200538.24336       -947.119                49.240    37102120.518   156991216.68439       -769.657                40.640  
E05  21770192.231   114403144.32375      -1092.119                42.410    21770208.344   87659606.78984       -836.646                37.310  
E34  23693675.346   124511118.71723        142.513                45.080    23693692.906   95404689.24772        109.219                44.020  
> 2025 05 29 09 01  52.0000000  0 29
G05  21714561.310   114110762.08689      -2568.033                41.030    21714573.479   88917528.95631      -2000.675                33.910  
G13  20567658.760   108083770.88928      -2814.136                40.890    20567671.828   84221183.99041      -2192.866                33.780  
G15  19710356.405   103578625.87956       -531.493                48.990    19710371.556   80710677.44062       -414.176                45.040  
G18  22221744.329   116776030.07354       1764.948                38.580    22221766.933   90994360.73157       1375.187                42.480  
G23  22974325.262   120730876.92977        843.408                34.910    22974351.387   94076073.38959        657.210                31.590  
G29  21215843.595   111490009.18065      -2555.806                47.640    21215859.302   86875408.32159      -1991.561                42.150  
R04  23221676.381   124351062.23482      -4710.359                28.930  
R05  19817024.111   105933336.59289      -3105.359                45.340    19817027.219   82392630.61749      -2415.339                45.800  
R06  20945341.200   111768349.86678       1067.029                34.860  
R19  21203079.052   113422150.25844      -4248.354                28.210    21203069.436   88217212.52107      -3304.040                30.500  
R20  19157336.715   102442936.14250       -405.196                33.080    19157344.167   79677833.73681       -315.323                44.050  
R21  21679231.657   116009909.85886       2700.120                33.120    21679232.715   90229965.65344       2099.853                32.610  
C02  37015546.468   192749664.10160       -920.051                34.380    37015554.043   149046297.70041       -711.498                34.630  
C08  36886968.129   192080117.12973      -1107.805                43.500    36886974.732   148528569.78213       -856.650                41.300    36886963.992   156080825.03394       -900.213                34.360  
C11  22396761.923   116625831.05002        475.458                44.090    22396773.666   90182532.92578        367.616                45.110    22396760.168   94768042.19962        386.342                38.000  
C12  22006324.631   114592657.60444      -2698.948                30.750  
C13  36924993.364   192278127.72966      -1056.581                43.110    36925007.356   148681719.81736       -816.875                38.270    36924998.921   156241753.99225       -858.533                34.960  
C16  39360297.523   158487618.09655        557.041                31.350  
C21  22297805.340   116110520.36338      -2258.026                46.740    22297803.608   94349304.58295      -1834.818                38.930    22297798.071   117175733.79842      -2278.773                46.070  
C22  25304663.264   131768028.14728      -3635.620                28.820  
C34  21407043.032   111472094.92287      -1185.405                45.660    21407047.240   90580219.37270       -963.072                39.990    21407038.054   112494743.96811      -1196.340                46.160  
C38  36640937.539   190798979.70434      -1075.300                44.310    36640939.573   155039807.09266       -873.972                38.840    36640932.072   192549383.32319      -1085.162                43.850  
C39  38648234.023   201251497.97334        828.929                30.800    38648229.090   203097816.38317        836.015                32.300  
C42  22802009.828   118736060.58160        132.934                48.190    22802021.836   96482836.55523        108.035                41.470    22802006.271   119825353.46395        134.136                48.800  
C43  23937729.486   125793748.37786       1455.186                33.460  
C50  21915427.642   114119386.11234      -1069.969                47.370    21915418.398   92731316.34270       -869.496                41.830    21915419.237   115166330.20201      -1079.630                45.020  
C60  37102313.362   193201485.22432       -946.638                49.180    37102302.382   156991986.19090       -769.232                40.740  
E05  21770399.919   114404236.37687      -1091.924                42.270    21770416.236   87660443.57247       -836.556                37.460  
E34  23693648.217   124510976.15746        142.904                45.050    23693665.772   95404580.01353        109.498                44.040  
> 2025 05 29 09 01  53.0000000  0 28
G05  21715050.000   114113329.83788      -2567.574                40.930    21715061.927   88919529.89765      -2000.915                33.750  
G13  20568194.063   108086584.98346      -2814.136                40.860    20568207.452   84223376.79958      -2192.766                33.630  
G15  19710457.645   103579157.36647       -531.532                49.050    19710472.735   80711091.58850       -414.232                45.130  
G18  22221408.659   116774264.92543       1765.355                38.780    22221431.337   90992985.29701       1375.572                42.570  
G23  22974165.137   120730033.06352        843.955                35.160    22974189.062   94075415.85248        657.277                31.140  
G29  21216329.858   111492564.97974      -2555.840                47.610    21216346.074   86877399.85016      -1991.600                42.120  
R05  19817604.871   105936441.80646      -3105.169                45.170    19817608.212   82395045.78033      -2415.160                45.620  
R06  20945141.471   111767282.90799       1066.878                35.140  
R19  21203873.542   113426398.63153      -4249.243                27.710    21203864.509   88220516.68106      -3303.755                31.120  
R20  19157411.906   102443341.65710       -405.839                33.020    19157420.132   79678149.10376       -315.569                44.090  
R21  21678727.711   116007209.66872       2700.433                33.340    21678728.138   90227865.52654       2099.886                32.330  
C02  37015723.018   192750583.69803       -919.447                34.400    37015730.513   149047008.80578       -710.973                34.340  
C08  36887180.844   192081224.67621      -1107.213                43.500    36887187.430   148529426.19357       -856.159                41.320    36887176.656   156081725.02892       -899.995                34.730  
C11  22396670.570   116625355.53498        475.553                44.100    22396682.349   90182165.20937        367.761                45.090    22396668.867   94767655.81128        386.426                38.120  
C12  22006843.243   114595356.58388      -2699.070                30.500  
C13  36925196.114   192279183.86062      -1055.754                43.170    36925210.261   148682536.49713       -816.367                38.210    36925201.605   156242612.13658       -857.683                34.980  
C16  39360159.344   158487060.73147        557.712                31.170  
C21  22298239.076   116112778.19596      -2257.724                46.810    22298237.143   94351139.24196      -1834.460                39.040    22298231.733   117178012.33273      -2278.348                45.960  
C22  25305361.277   131771663.56479      -3634.955                29.270  
C34  21407270.589   111473280.23383      -1185.282                45.620    21407274.774   90581182.56366       -963.228                40.000    21407265.693   112495940.13704      -1196.150                46.030  
C38  36641143.980   190800054.73519      -1074.764                44.370    36641146.021   155040680.61913       -873.497                38.810    36641138.503   192550468.22208      -1084.676                43.740  
C39  38648074.975   201250669.29724        828.627                30.870    38648069.999   203096980.00156        837.021                32.230  
C42  22801984.212   118735927.51806        133.141                48.160    22801996.133   96482728.43707        108.275                41.590    22801980.619   119825219.18772        134.377                48.670  
C43  23937452.374   125792292.71177       1455.728                32.930  
C50  21915633.064   114120455.80442      -1069.606                47.420    21915623.790   92732185.54151       -869.032                41.860    21915624.705   115167409.72702      -1079.479                44.880  
C60  37102495.056   193202431.50591       -946.034                49.190    37102484.057   156992755.12264       -768.830                40.880  
E05  21770607.503   114405328.15277      -1091.672                42.410    21770624.175   87661280.12603       -836.417                37.400  
E34  23693620.965   124510833.07568        143.245                45.230    23693638.549   95404470.38768        109.666                43.900  
> 2025 05 29 09 01  54.0000000  0 28
G05  21715538.666   114115897.10413      -2567.004                41.050    21715550.022   88921530.33660      -2000.261                33.840  
G13  20568729.472   108089399.08004      -2813.997                40.880    20568742.878   84225569.62199      -2192.665                33.580  
G15  19710558.924   103579688.87259       -531.420                49.140    19710573.852   80711505.76407       -414.249                45.110  
G18  22221072.666   116772499.38644       1765.870                38.930    22221095.135   90991609.54699       1375.902                42.440  
G23  22974004.585   120729188.70296        844.587                35.490    22974028.113   94074757.84648        658.836                30.310  
G29  21216816.111   111495120.77091      -2555.734                47.560    21216832.486   86879391.37782      -1991.522                42.080  
R05  19818185.667   105939546.83768      -3104.845                45.070    19818189.230   82397460.79991      -2414.858                45.870  
R06  20944942.364   111766215.91773       1066.990                35.380  
R19  21204668.287   113430646.77160      -4248.399                27.530    21204658.865   88223820.91623      -3304.202                31.350  
R20  19157488.383   102443747.22500       -405.464                32.930    19157495.884   79678464.57539       -315.513                44.180  
R21  21678222.983   116004509.17961       2700.601                33.300    21678222.551   90225765.14639       2100.294                32.450  
C02  37015899.539   192751502.76036       -918.799                34.410    37015907.264   149047719.47704       -710.375                34.430  
C08  36887393.507   192082331.55426      -1106.419                43.380    36887399.995   148530282.12051       -855.583                41.220    36887389.092   156082624.41528       -898.995                34.570  
C11  22396579.197   116624879.87256        475.810                44.110    22396591.063   90181797.41001        367.901                45.080    22396577.613   94767269.30168        386.638                38.150  
C12  22007362.002   114598055.41367      -2698.735                30.440  
C13  36925398.713   192280239.36374      -1055.083                42.990    36925412.963   148683352.68953       -815.909                38.270    36925404.338   156243469.86256       -857.326                34.980  
C16  39360020.769   158486502.93294        558.148                31.230  
C21  22298672.707   116115035.67273      -2257.271                46.750    22298670.685   94352973.63023      -1834.237                38.990    22298665.343   117180290.51672      -2277.963                45.830  
C22  25306059.180   131775298.38218      -3634.100                29.020  
C34  21407498.233   111474465.50932      -1185.187                45.560    21407502.344   90582145.71056       -963.211                39.990    21407493.317   112497136.29992      -1196.083                45.940  
C38  36641350.322   190801129.08067      -1073.914                44.280    36641352.456   155041553.60634       -872.715                38.750    36641344.797   192551552.42111      -1083.793                43.590  
C39  38647915.966   201249839.96243        829.688                30.540    38647910.915   203096143.15018        836.898                32.080  
C42  22801958.568   118735794.19165        133.516                48.070    22801970.465   96482620.09898        108.426                41.550    22801954.946   119825084.63453        134.757                48.500  
C43  23937175.147   125790836.84485       1455.806                32.730  
C50  21915838.480   114121525.22895      -1069.232                47.320    21915829.153   92733054.55325       -868.820                41.860    21915830.121   115168488.96062      -1079.043                44.830  
C60  37102676.636   193203377.21913       -945.330                49.130    37102665.712   156993523.58078       -768.148                40.710  
E05  21770815.115   114406419.79977      -1091.555                42.370    21770832.001   87662116.57504       -836.159                37.370  
E34  23693593.617   124510689.60715        143.714                45.210    23693611.258   95404360.45175        110.118                43.960  
> 2025 05 29 09 01  55.0000000  0 29
G05  21716027.081   114118463.20754      -2565.121                41.110    21716038.651   88923529.87917      -1998.680                33.780  
G13  20569264.743   108092212.53916      -2812.907                41.060    20569278.102   84227761.90116      -2191.866                33.910  
G15  19710660.038   103580219.72651       -530.124                49.260    19710675.246   80711919.40898       -413.115                45.210  
G18  22220736.525   116770732.74135       1767.602                39.110    22220759.040   90990232.93503       1377.266                42.640  
G23  22973844.128   120728343.15212        846.609                35.660    22973868.238   94074099.01907        660.138                30.560  
G29  21217302.258   111497675.87914      -2554.398                47.630    21217319.018   86881382.35803      -1990.427                42.340  
R05  19818766.224   105942651.02514      -3103.359                45.040    19818770.071   82399875.17713      -2413.807                45.830  
R06  20944742.490   111765148.19440       1068.605                35.450  
R19  21205452.951   88227124.40632      -3302.660                31.200  
R20  19157563.540   102444152.33677       -404.403                32.720    19157571.630   79678779.65780       -314.625                44.140  
R21  21677718.719   116001807.77416       2701.925                33.550    21677717.400   90223663.97060       2102.010                32.230  
C02  37016075.796   192752420.57449       -916.709                34.400    37016083.580   149048429.20189       -709.067                34.400  
C08  36887605.775   192083437.10202      -1104.553                43.500    36887612.293   148531137.00696       -854.203                41.250    36887601.420   156083522.80927       -897.665                34.520  
C11  22396487.684   116624403.39986        477.246                44.230    22396499.643   90181428.98175        368.924                45.110    22396486.138   94766882.13894        387.739                38.160  
C12  22007880.734   114600753.52034      -2697.735                30.920  
C13  36925601.169   192281293.52430      -1053.194                43.090    36925615.364   148684167.83889       -814.406                38.290    36925606.839   156244326.46233       -855.811                34.970  
C16  39359881.691   158485944.14385        559.444                31.580  
C21  22299106.162   116117292.09969      -2255.562                46.860    22299103.937   94354807.17450      -1832.901                39.000    22299098.803   117182567.65812      -2276.287                45.860  
C22  25306756.708   131778931.86232      -3632.312                28.810  
C34  21407725.717   111475650.07104      -1183.891                45.660    21407729.871   90583108.22853       -961.921                40.060    21407720.838   112498331.73255      -1194.781                45.890  
C38  36641556.409   190802202.13206      -1072.070                44.390    36641558.508   155042425.54654       -871.234                38.750    36641550.859   192552635.30892      -1081.949                43.610  
C39  38647756.354   201249009.48597        831.410                30.710    38647751.754   203095304.97535        839.289                32.060  
C42  22801932.761   118735659.92066        135.136                48.170    22801944.662   96482511.01680        109.577                41.710    22801929.114   119824949.14057        136.299                48.450  
C43  23936897.719   125789379.98753       1457.890                32.590  
C44  23410619.593   121905245.79245      -3841.116                26.470  
C50  21916043.638   114122593.71541      -1067.689                47.390    21916034.322   92733922.79188       -867.714                41.910    21916035.370   115169567.24415      -1077.456                44.860  
C60  37102858.015   193204321.69723       -943.542                49.250    37102847.118   156994291.03824       -766.678                40.790  
E05  21771022.517   114407510.58425      -1090.007                42.430    21771039.557   87662952.40374       -835.232                37.370  
E34  23693566.134   124510545.04824        145.491                45.450    23693583.760   95404249.67462        111.398                43.880  
> 2025 05 29 09 01  56.0000000  0 27
G05  21716515.178   114121027.96933      -2564.630                40.910    21716525.998   88925528.39431      -1998.373                33.910  
G13  20569799.881   108095025.05276      -2812.589                41.040    20569813.368   84229953.49648      -2191.676                33.540  
G15  19710761.007   103580749.71891       -530.113                49.220    19710775.969   80712332.39626       -413.098                45.340  
G18  22220400.411   116768964.79467       1767.993                39.290    22220422.754   90988855.32129       1377.646                42.720  
G23  22973683.401   120727496.27385        847.023                35.710    22973706.710   94073439.18774        659.445                30.720  
G29  21217788.229   111500230.11985      -2554.393                47.530    21217805.026   86883372.67266      -1990.354                42.500  
R05  19819346.742   105945754.15315      -3103.213                44.980    19819350.685   82402288.71580      -2413.612                45.850  
R06  20944542.876   111764079.50234       1068.739                35.630  
R19  21206246.403   88230427.19063      -3302.475                30.860  
R20  19157638.387   102444556.73447       -404.676                32.820    19157647.155   79679094.17232       -314.647                44.320  
R21  21677214.102   115999105.05206       2702.517                33.310    21677212.304   90221561.91357       2101.982                32.550  
C02  37016251.821   192753336.95433       -916.195                34.380    37016259.426   149049137.80888       -708.430                34.500  
C08  36887817.776   192084541.09731      -1103.765                43.300    36887824.359   148531990.68493       -853.588                41.410    36887813.518   156084419.85046       -896.754                34.780  
C11  22396395.909   116623925.94798        477.352                44.020    22396407.942   90181059.78023        369.125                45.310    22396394.288   94766494.16918        387.800                38.140  
C12  22008399.378   114603450.54912      -2697.075                30.940  
C13  36925803.235   192282346.16104      -1052.462                42.770    36925817.502   148684981.79551       -813.808                38.360    36925808.838   156245181.80424       -855.029                35.110  
C16  39359742.685   158485384.21645        559.874                31.920  
C21  22299539.331   116119547.31457      -2255.126                46.740    22299537.047   94356639.70001      -1832.387                39.000    22299531.958   117184843.55059      -2275.789                45.940  
C34  21407952.970   111476833.71352      -1183.779                45.360    21407957.090   90584070.05618       -961.943                40.090    21407948.155   112499526.23083      -1194.619                45.930  
C38  36641762.222   190803273.63131      -1071.338                44.130    36641764.280   155043296.22178       -870.452                38.860    36641756.646   192553716.63798      -1081.117                43.700  
C39  38647596.567   201248177.53844        832.047                30.600    38647592.009   203094465.38207        839.842                31.950  
C42  22801906.738   118735524.52120        135.449                47.930    22801918.614   96482400.97159        109.996                41.720    22801903.060   119824812.49326        136.679                48.500  
C43  23936619.991   125787922.04626       1458.036                32.330  
C50  21916248.545   114123661.04463      -1067.315                47.120    21916239.291   92734790.09323       -867.434                41.940    21916240.353   115170644.37052      -1077.093                44.890  
C60  37103039.069   193205264.72251       -942.894                48.970    37103028.217   156995057.34014       -766.080                40.870  
E05  21771229.705   114408600.34964      -1089.767                42.260    21771246.999   87663787.42141       -835.075                37.550  
E34  23693538.354   124510399.21725        145.905                45.380    23693556.029   95404137.95246        111.767                43.960  
> 2025 05 29 09 01  57.0000000  0 27
G05  21717003.208   114123592.47534      -2565.026                40.910    21717014.253   88927526.75072      -1998.825                33.890  
G13  20570335.106   108097837.78852      -2813.343                41.160    20570348.735   84232145.21531      -2192.229                33.800  
G15  19710862.017   103581279.95188       -530.940                49.340    19710876.868   80712745.55512       -413.657                45.480  
G18  22220063.844   116767196.62279       1767.686                39.390    22220086.544   90987477.53779       1377.366                42.740  
G23  22973522.603   120726649.11049        846.682                35.740    22973545.125   94072778.99788        659.791                30.640  
G29  21218274.240   111502784.56598      -2555.119                47.510    21218291.046   86885363.14644      -1990.930                42.530  
R05  19819927.084   105948857.29895      -3103.772                44.400    19819931.478   82404702.27068      -2414.048                45.830  
R06  20944343.091   111763010.96021       1067.974                35.410  
R19  21207040.544   88233730.10710      -3303.034                30.540  
R20  19157713.895   102444961.45716       -405.291                33.180    19157723.064   79679409.00046       -315.480                44.390  
R21  21676708.710   115996402.22424       2702.372                33.230    21676706.263   90219459.68723       2101.976                32.680  
C02  37016427.628   192754252.95955       -916.418                34.300    37016435.413   149049846.12203       -708.514                34.500  
C08  36888029.683   192085644.64145      -1103.838                43.200    36888036.111   148532844.01636       -853.611                41.310    36888025.361   156085316.60016       -896.933                34.500  
C11  22396304.173   116623448.56772        476.687                44.140    22396316.228   90180690.62286        368.694                45.270    22396302.767   94766106.22947        387.538                38.160  
C12  22008918.064   114606147.73748      -2697.981                30.560  
C13  36926005.194   192283398.35192      -1052.591                42.830    36926019.551   148685795.41613       -813.869                38.310    36926010.808   156246036.83132       -855.498                35.000  
C16  39359603.523   158484824.02388        559.673                31.460  
C21  22299972.477   116121802.37911      -2255.562                46.770    22299970.137   94358472.14376      -1832.845                39.140    22299965.094   117187119.30143      -2276.214                45.950  
C34  21408180.281   111478017.52522      -1184.483                45.310    21408184.410   90585032.01973       -962.669                39.990    21408175.528   112500720.90310      -1195.334                45.870  
C38  36641967.769   190804344.69266      -1071.366                44.110    36641969.974   155044166.56336       -870.642                38.720    36641962.278   192554797.53986      -1081.295                43.680  
C39  38647436.713   201247345.29666        832.119                30.470    38647432.395   203093625.53429        839.446                32.080  
C42  22801880.701   118735389.06195        134.929                47.900    22801892.560   96482290.91625        109.611                41.620    22801876.993   119824675.79292        136.103                48.490  
C43  23936342.381   125786464.00144       1457.376                32.110  
C50  21916453.465   114124728.32344      -1067.851                47.120    21916444.277   92735657.32894       -867.747                41.870    21916445.355   115171721.43254      -1077.585                44.880  
C60  37103220.086   193206207.39118       -943.101                48.960    37103209.234   156995823.33717       -766.382                40.650  
E05  21771436.921   114409690.17896      -1090.448                42.280    21771454.450   87664622.47033       -835.450                37.450  
E34  23693510.586   124510253.20509        145.486                45.450    23693528.217   95404026.04796        111.554                43.860  
> 2025 05 29 09 01  58.0000000  0 27
G05  21717491.365   114126157.95891      -2566.446                40.910    21717501.374   88929525.78622      -1999.725                33.500  
G13  20570870.461   108100651.99292      -2815.304                41.120    20570884.180   84234338.11991      -2193.766                33.620  
G15  19710963.245   103581811.66728       -532.856                49.350    19710977.904   80713159.90020       -415.260                45.440  
G18  22219727.660   116765429.51742       1766.233                39.590    22219750.193   90986100.56903       1376.165                42.780  
G23  22973362.074   120725802.89587        845.319                35.870    22973384.298   94072119.59037        659.121                30.090  
G29  21218760.514   111505340.49299      -2557.092                47.450    21218777.820   86887354.77163      -1992.489                42.510  
R05  19820507.733   105951961.74371      -3105.521                44.080    19820512.162   82407116.84690      -2415.434                45.940  
R06  20944143.106   111761943.77309       1066.074                35.580  
R19  21207834.577   88237034.15862      -3304.917                30.820  
R20  19157789.741   102445367.94933       -407.839                32.730    19157798.986   79679725.10158       -317.028                44.260  
R21  21676202.984   115993700.58060       2700.461                33.080    21676201.811   90217358.39508       2100.736                32.450  
C02  37016603.891   192755169.87553       -917.726                34.310    37016611.622   149050555.12669       -709.559                34.710  
C08  36888241.794   192086748.99048      -1105.078                43.240    36888248.246   148533697.96466       -854.566                41.370    36888237.533   156086213.99821       -898.118                34.400  
C11  22396212.806   116622972.49522        474.944                44.250    22396224.802   90180322.49386        367.348                45.430    22396211.385   94765719.40337        386.012                38.220  
C12  22009437.159   114608846.26278      -2699.925                30.310  
C13  36926207.310   192284451.35978      -1053.792                42.790    36926221.716   148686609.67138       -814.769                38.280    36926213.036   156246892.46914       -856.326                34.990  
C16  39359464.546   158484264.42802        558.880                31.400  
C21  22300405.860   116124058.54604      -2257.115                46.840    22300403.384   94360305.44826      -1833.979                39.040    22300398.427   117189396.16486      -2277.818                45.940  
C34  21408407.915   111479202.74150      -1186.388                45.390    21408412.004   90585995.07456       -963.938                40.050    21408403.147   112501916.98588      -1197.212                45.890  
C38  36642173.588   190805416.56565      -1072.702                44.110    36642175.796   155045037.55805       -871.821                38.790    36642168.106   192555879.22875      -1082.491                43.690  
C39  38647277.049   201246513.97563        830.454                30.600    38647272.801   203092786.53208        838.267                32.390  
C42  22801854.887   118735254.78183        133.342                47.960    22801866.806   96482181.81411        108.135                41.660    22801851.129   119824540.28693        134.500                48.520  
C43  23936065.175   125785007.11372       1455.923                31.870  
C50  21916658.614   114125796.77484      -1069.461                47.190    21916649.514   92736525.52575       -868.943                41.850    21916650.566   115172799.69631      -1079.267                44.850  
C60  37103401.267   193207150.93603       -944.408                48.980    37103390.327   156996590.04558       -767.405                40.730  
E05  21771644.370   114410781.30713      -1092.253                42.300    21771662.107   87665458.53838       -836.908                37.380  
E34  23693482.942   124510108.24883        144.010                45.540    23693500.677   95403915.00909        110.230                43.800  
> 2025 05 29 09 01  59.0000000  0 27
G05  21717979.727   114128724.32005      -2566.530                40.750    21717989.803   88931525.52989      -1999.703                33.500  
G13  20571406.316   108103467.54684      -2816.025                41.120    20571419.962   84236532.04014      -2194.336                33.680  
G15  19711064.779   103582344.78282       -533.639                49.330    19711079.269   80713575.29669       -415.869                45.410  
G18  22219391.527   116763663.34644       1765.875                39.650    22219414.132   90984724.31442       1376.003                42.730  
G23  22973201.358   120724957.55056        845.140                35.740    22973223.835   94071460.93044        658.350                29.890  
G29  21219247.076   111507897.77010      -2557.807                47.340    21219264.415   86889347.47219      -1993.142                42.600  
R05  19821088.411   105955067.38841      -3106.114                44.280    19821093.143   82409532.33763      -2415.813                46.040  
R06  20943944.215   111760877.97855       1065.269                35.310  
R19  21208629.325   88240339.17437      -3305.627                30.760  
R20  19157866.522   102445775.90330       -408.432                33.000    19157875.360   79680042.42488       -317.799                44.320  
R21  21675698.590   115990999.88221       2700.416                33.230    21675697.471   90215257.92716       2100.306                32.300  
C02  37016780.053   192756087.52190       -917.832                34.280    37016787.694   149051264.72955       -709.643                34.590  
C08  36888453.922   192087854.01414      -1105.156                43.290    36888460.347   148534552.43863       -854.588                41.350    36888449.763   156087111.90636       -898.056                34.470  
C11  22396121.666   116622497.63847        474.402                44.400    22396133.590   90179955.32066        366.783                45.460    22396120.279   94765333.54647        385.442                38.250  
C12  22009956.252   114611545.98289      -2700.182                30.360  
C13  36926409.592   192285505.05328      -1053.865                42.920    36926424.184   148687424.45673       -814.976                38.430    36926415.581   156247748.67816       -856.381                34.930  
C16  39359325.743   158483705.45396        558.902                31.560  
C21  22300839.363   116126315.68259      -2257.456                46.960    22300836.767   94362139.58401      -1834.454                38.930    22300831.927   117191674.02691      -2278.253                45.900  
C34  21408635.756   111480389.25532      -1187.009                45.510    21408639.796   90586959.22141       -964.553                39.970    21408631.027   112503114.39189      -1197.876                45.840  
C38  36642379.565   190806489.12236      -1072.780                44.290    36642381.694   155045909.08094       -871.748                38.800    36642374.059   192556961.63187      -1082.614                43.580  
C39  38647117.551   201245683.40552        830.203                30.730    38647113.447   203091948.37496        837.725                32.270  
C42  22801829.232   118735121.59801        132.767                48.060    22801841.250   96482073.59290        107.789                41.630    22801825.496   119824405.87035        134.025                48.410  
C43  23935787.991   125783551.39293       1455.264                31.860  
C50  21916863.901   114126866.29717      -1069.958                47.240    21916854.862   92737394.61406       -869.474                41.810    21916855.983   115173879.01324      -1079.625                44.780  
C60  37103582.625   193208095.26136       -944.570                49.120    37103571.571   156997357.37166       -767.488                40.720  
E05  21771852.087   114411873.63431      -1092.767                41.960    21771870.018   87666295.50140       -837.109                37.310  
E34  23693455.538   124509964.26487        143.625                45.350    23693473.244   95403804.67234        110.051                43.650  
> 2025 05 29 09 02   0.0000000  0 28
G05  21718468.212   114131291.41534      -2568.100                40.630    21718477.980   88933525.86225      -2000.764                33.280  
G13  20571942.241   108106284.24802      -2817.780                41.070    20571956.011   84238726.91268      -2195.649                34.090  
G15  19711166.567   103582879.09337       -535.511                49.240    19711181.128   80713991.63801       -417.211                45.420  
G18  22219055.801   116761897.93433       1764.461                39.570    22219077.942   90983348.67638       1374.930                42.800  
G23  22973040.855   120724112.90845        843.665                35.380    22973064.339   94070802.75093        657.539                29.440  
G29  21219733.840   111510456.23400      -2559.606                47.170    21219751.497   86891341.08574      -1994.629                42.660  
R05  19821669.396   105958174.06019      -3107.795                44.450    19821674.504   82411948.64444      -2417.076                46.340  
R06  20943744.532   111759813.21565       1063.498                35.340  
R19  21209424.475   88243645.05103      -3307.002                30.980  
R20  19157942.783   102446185.24097       -410.410                32.950    19157951.870   79680360.81685       -319.414                44.260  
R21  21675194.625   115988300.13800       2698.857                33.140    21675193.240   90213158.10501       2099.115                32.410  
C02  37016956.445   192757005.76934       -919.201                34.280    37016963.772   149051974.74661       -710.643                34.660  
C08  36888666.220   192088959.55169      -1106.414                43.150    36888672.673   148535407.30313       -855.477                41.400    36888661.950   156088010.20858       -898.866                34.750  
C11  22396030.666   116622023.84255        472.636                44.410    22396042.659   90179588.93750        365.610                45.450    22396029.384   94764948.55484        383.906                38.270  
C12  22010475.141   114614246.72598      -2701.859                30.080  
C13  36926612.030   192286559.25197      -1054.966                42.810    36926626.737   148688239.63092       -815.791                38.390    36926617.942   156248605.29815       -857.164                34.990  
C16  39359187.324   158483146.97283        557.701                31.570  
C21  22301273.006   116128573.63958      -2258.897                46.920    22301270.362   94363974.35402      -1835.539                39.050    22301265.653   117193952.69205      -2279.611                45.800  
C22  25310242.295   131797080.61066      -3634.452                27.420  
C34  21408863.862   111481576.89921      -1188.813                45.480    21408867.871   90587924.27496       -965.961                40.050    21408859.099   112504312.92919      -1199.665                45.680  
C38  36642585.677   190807562.17605      -1073.909                44.200    36642587.721   155046781.03311       -872.726                38.750    36642580.166   192558044.53060      -1083.782                43.580  
C39  38646958.109   201244853.43301        829.158                30.650    38646954.247   203091110.78192        836.970                32.180  
C42  22801803.802   118734989.29753        131.342                48.000    22801815.856   96481966.07358        106.699                41.720    22801800.045   119824272.36115        132.494                48.270  
C43  23935511.159   125782096.53413       1453.783                31.420  
C50  21917069.462   114127936.69107      -1071.411                47.200    21917060.413   92738264.40778       -870.659                41.910    21917061.563   115174959.24984      -1081.279                44.730  
C60  37103764.095   193209040.17756       -945.755                49.070    37103753.093   156998125.21713       -768.511                40.780  
E05  21772059.928   114412966.98398      -1094.449                41.970    21772078.193   87667133.27894       -838.518                37.310  
E34  23693428.266   124509821.05540        142.217                45.450    23693445.995   95403694.94010        108.984                43.610  
> 2025 05 29 09 02   1.0000000  0 27
G05  21718956.994   114133860.15997      -2568.798                40.500    21718967.047   88935527.47873      -2001.351                33.000  
G13  20572478.647   108109103.12071      -2819.071                41.020    20572492.411   84240923.44772      -2196.717                33.860  
G15  19711268.724   103583415.57312       -536.678                49.100    19711283.307   80714409.67684       -418.105                45.530  
G18  22218720.348   116760134.24635       1763.657                39.610    22218742.031   90981974.39634       1374.220                42.870  
G23  22972880.508   120723269.92773        842.960                35.430    22972902.683   94070145.90222        656.763                29.330  
G29  21220221.122   111513016.84444      -2560.774                47.000    21220239.037   86893336.35781      -1995.428                42.720  
R05  19822250.642   105961282.72855      -3108.745                44.400    19822256.107   82414366.51972      -2417.970                46.360  
R06  20943545.589   111758750.56834       1062.503                35.090  
R19  21210218.795   88246952.62832      -3308.248                30.760  
R20  19158019.749   102446596.90594       -411.555                32.960    19158029.059   79680681.04211       -320.498                44.450  
R21  21674690.252   115985602.29333       2697.935                33.480    21674688.941   90211059.77919       2098.423                32.040  
C02  37017133.095   192757925.58332       -919.777                34.270    37017140.485   149052686.03874       -711.174                34.790  
C08  36888878.799   192090066.55503      -1106.939                43.210    36888885.253   148536263.32069       -856.025                41.390    36888874.624   156088909.71216       -899.140                34.770  
C11  22395940.064   116621552.02357        471.614                44.520    22395952.075   90179224.10443        364.710                45.550    22395938.798   94764565.16789        383.146                38.400  
C12  22010994.672   114616949.57848      -2703.071                30.030  
C13  36926814.774   192287614.92508      -1055.541                42.750    36926829.375   148689055.95311       -816.361                38.490    36926820.735   156249463.14587       -857.985                35.070  
C16  39359048.455   158482589.61642        557.477                31.750  
